[
  {
    "id": "1",
    "postcode": "5118",
    "label": "Neretas pasta nodaļa",
    "working_monday": "7:00-15:00",
    "working_tuesday": "7:00-15:00",
    "working_wednesday": "7:00-15:00",
    "working_thursday": "7:00-15:00",
    "working_friday": "7:00-15:00",
    "working_saturday": "-",
    "working_sunday": "-",
    "phone": "67008001",
    "inout": "0",
    "region": "Aizkraukles raj.",
    "city": null,
    "area": "Aizkraukles nov.",
    "district": "Neretas pag.",
    "village": "Nereta",
    "street": "Pētera Lodziņa iela",
    "house": "2",
    "zipcode": "5118",
    "address": "Pētera Lodziņa iela 2, Nereta, Neretas pag., Aizkraukles nov., LV-5118",
    "lat": "56.2039121271",
    "long": "25.3090591955"
  },
  {
    "id": "5",
    "postcode": "5011",
    "label": "Lēdmanes pasta nodaļa",
    "working_monday": "7:00-14:00",
    "working_tuesday": "7:00-14:00",
    "working_wednesday": "7:00-14:00",
    "working_thursday": "7:00-14:00",
    "working_friday": "7:00-14:00",
    "working_saturday": "-",
    "working_sunday": "-",
    "phone": "67008001",
    "inout": "0",
    "region": "Ogres raj.",
    "city": null,
    "area": "Ogres nov.",
    "district": "Lēdmanes pag.",
    "village": "Lēdmane",
    "street": null,
    "house": "Pagastmāja",
    "zipcode": "5011",
    "address": "\"Pagastmāja\", Lēdmane, Lēdmanes pag., Ogres nov., LV-5011",
    "lat": "56.7682607996",
    "long": "24.999530632"
  },
  {
    "id": "8",
    "postcode": "3435",
    "label": "Vaiņodes pasta nodaļa",
    "working_monday": "8:00 - 13:00",
    "working_tuesday": "9:00 - 14:00",
    "working_wednesday": "8:00 - 13:00",
    "working_thursday": "9:00 - 14:00",
    "working_friday": "8:00 - 13:00",
    "working_saturday": "-",
    "working_sunday": "-",
    "phone": "67008001;27008001",
    "inout": "0",
    "region": "Liepājas raj.",
    "city": null,
    "area": "Dienvidkurzemes nov.",
    "district": "Vaiņodes pag.",
    "village": "Vaiņode",
    "street": "Brīvības iela",
    "house": "17",
    "zipcode": "3435",
    "address": "Brīvības iela 17, Vaiņode, Vaiņodes pag., Dienvidkurzemes nov., LV-3435",
    "lat": "56.4170051075",
    "long": "21.8555717117"
  },
  {
    "id": "12",
    "postcode": "4650",
    "label": "Viļānu pasta nodaļa",
    "working_monday": "9:00-18:00",
    "working_tuesday": "9:00-18:00",
    "working_wednesday": "9:00-18:00",
    "working_thursday": "9:00-18:00",
    "working_friday": "9:00-18:00",
    "working_saturday": "-",
    "working_sunday": "-",
    "phone": "67008001; 27008001",
    "inout": "0",
    "region": "Rēzeknes raj.",
    "city": "Viļāni",
    "area": "Rēzeknes nov.",
    "district": null,
    "village": null,
    "street": "Rēzeknes iela",
    "house": "24",
    "zipcode": "4650",
    "address": "Rēzeknes iela 24, Viļāni, Rēzeknes nov., LV-4650",
    "lat": "56.5498464128",
    "long": "26.9299594851"
  },
  {
    "id": "16",
    "postcode": "3275",
    "label": "Kolkas pasta nodaļa",
    "working_monday": "-",
    "working_tuesday": "-",
    "working_wednesday": "-",
    "working_thursday": "-",
    "working_friday": "-",
    "working_saturday": "-",
    "working_sunday": "-",
    "phone": "67008001;27008001 pasta pakalpojumi pēc pieprasījuma",
    "inout": "0",
    "region": "Talsu raj.",
    "city": null,
    "area": "Talsu nov.",
    "district": "Kolkas pag.",
    "village": "Kolka",
    "street": null,
    "house": "Saulkrasti",
    "zipcode": "3275",
    "address": "\"Saulkrasti\", Kolka, Kolkas pag., Talsu nov., LV-3275",
    "lat": "57.7434354343",
    "long": "22.5864232596"
  },
  {
    "id": "18",
    "postcode": "4025",
    "label": "Skultes pasta nodaļa",
    "working_monday": "8:00-12:00; 12:30-15:30",
    "working_tuesday": "8:00-12:00; 12:30-15:30",
    "working_wednesday": "8:00-12:00; 12:30-15:30",
    "working_thursday": "8:00-12:00; 12:30-15:30",
    "working_friday": "8:00-13:30",
    "working_saturday": "-",
    "working_sunday": "-",
    "phone": "67008001; 27008001",
    "inout": "0",
    "region": "Limbažu raj.",
    "city": null,
    "area": "Limbažu nov.",
    "district": "Skultes pag.",
    "village": "Mandegas",
    "street": null,
    "house": "Mandagas",
    "zipcode": "4025",
    "address": "\"Mandagas\", Mandegas, Skultes pag., Limbažu nov., LV-4025",
    "lat": "57.3301288639",
    "long": "24.4872033891"
  },
  {
    "id": "21",
    "postcode": "1055",
    "label": "Rīgas 55.pasta nodaļa",
    "working_monday": "8:00-19:00",
    "working_tuesday": "8:00-19:00",
    "working_wednesday": "8:00-19:00",
    "working_thursday": "8:00-19:00",
    "working_friday": "8:00-19:00",
    "working_saturday": "-",
    "working_sunday": "-",
    "phone": "67008001",
    "inout": "1",
    "region": null,
    "city": "Rīga",
    "area": null,
    "district": null,
    "village": null,
    "street": "Cementa iela",
    "house": "12",
    "zipcode": "1055",
    "address": "Cementa iela 12, Rīga, LV-1055",
    "lat": "56.9690877694",
    "long": "24.061603602"
  },
  {
    "id": "22",
    "postcode": "2125",
    "label": "Baldones pasta nodaļa",
    "working_monday": "8:00-17:00",
    "working_tuesday": "8:00-17:00",
    "working_wednesday": "8:00-19:00",
    "working_thursday": "8:00-17:00",
    "working_friday": "8:00-14:00",
    "working_saturday": "-",
    "working_sunday": "-",
    "phone": " 67008001",
    "inout": "1",
    "region": "Rīgas raj.",
    "city": "Baldone",
    "area": "Ķekavas nov.",
    "district": null,
    "village": null,
    "street": "Rīgas iela",
    "house": "87",
    "zipcode": "2125",
    "address": "Rīgas iela 87, Baldone, Ķekavas nov., LV-2125",
    "lat": "56.7429389723",
    "long": "24.4003831253"
  },
  {
    "id": "23",
    "postcode": "2137",
    "label": "Garkalnes pasta nodaļa",
    "working_monday": "8:00-15:00",
    "working_tuesday": "8:00-18:00",
    "working_wednesday": "8:00-15:00",
    "working_thursday": "8:00-15:00",
    "working_friday": "8:00-15:00",
    "working_saturday": "-",
    "working_sunday": "-",
    "phone": "67008001",
    "inout": "0",
    "region": "Rīgas raj.",
    "city": null,
    "area": "Ropažu nov.",
    "district": "Garkalnes pag.",
    "village": "Garkalne",
    "street": "Vidzemes šoseja",
    "house": "1D",
    "zipcode": "2137",
    "address": "Vidzemes šoseja 1D, Garkalne, Garkalnes pag., Ropažu nov., LV-2137",
    "lat": "57.0435179141",
    "long": "24.4084361201"
  },
  {
    "id": "26",
    "postcode": "3463",
    "label": "Vērgales pasta nodaļa",
    "working_monday": "8:00-13:00",
    "working_tuesday": "8:00-13:00",
    "working_wednesday": "8:00-13:00",
    "working_thursday": "8:00-13:00",
    "working_friday": "8:00-13:00",
    "working_saturday": "-",
    "working_sunday": "-",
    "phone": "67008001;27008001",
    "inout": "0",
    "region": "Liepājas raj.",
    "city": null,
    "area": "Dienvidkurzemes nov.",
    "district": "Vērgales pag.",
    "village": "Vērgale",
    "street": null,
    "house": "Veikalnieki",
    "zipcode": "3463",
    "address": "\"Veikalnieki\", Vērgale, Vērgales pag., Dienvidkurzemes nov., LV-3463",
    "lat": "56.6976399856",
    "long": "21.1963776962"
  },
  {
    "id": "27",
    "postcode": "3708",
    "label": "Auces pasta nodaļa",
    "working_monday": "7:00-15:00",
    "working_tuesday": "7:00-15:00",
    "working_wednesday": "7:00-15:00",
    "working_thursday": "7:00-15:00",
    "working_friday": "7:00-15:00",
    "working_saturday": "-",
    "working_sunday": "-",
    "phone": "67008001",
    "inout": "0",
    "region": "Dobeles raj.",
    "city": "Auce",
    "area": "Dobeles nov.",
    "district": null,
    "village": null,
    "street": "Raiņa iela",
    "house": "12",
    "zipcode": "3708",
    "address": "Raiņa iela 12, Auce, Dobeles nov., LV-3708",
    "lat": "56.4633008947",
    "long": "22.8943530276"
  },
  {
    "id": "28",
    "postcode": "3620",
    "label": "Piltenes pasta nodaļa",
    "working_monday": "9:00 - 14:00",
    "working_tuesday": "7:00 - 12:00",
    "working_wednesday": "9:00 - 14:00",
    "working_thursday": "7:00 - 12:00",
    "working_friday": "9:00 - 14:00",
    "working_saturday": "-",
    "working_sunday": "-",
    "phone": "67008001;27008001",
    "inout": "0",
    "region": "Ventspils raj.",
    "city": "Piltene",
    "area": "Ventspils nov.",
    "district": null,
    "village": null,
    "street": "Lielā iela",
    "house": "4",
    "zipcode": "3620",
    "address": "Lielā iela 4, Piltene, Ventspils nov., LV-3620",
    "lat": "57.2234281419",
    "long": "21.6733180945"
  },
  {
    "id": "29",
    "postcode": "3473",
    "label": "Nīcas pasta nodaļa",
    "working_monday": "8:00 - 14:00",
    "working_tuesday": "7:00 - 13:00",
    "working_wednesday": "8:00 - 14:00",
    "working_thursday": "7:00 - 13:00",
    "working_friday": "8:00 - 14:00",
    "working_saturday": "-",
    "working_sunday": "-",
    "phone": "67008001",
    "inout": "0",
    "region": "Liepājas raj.",
    "city": null,
    "area": "Dienvidkurzemes nov.",
    "district": "Nīcas pag.",
    "village": "Nīca",
    "street": "Bārtas iela",
    "house": "6",
    "zipcode": "3473",
    "address": "Bārtas iela 6, Nīca, Nīcas pag., Dienvidkurzemes nov., LV-3473",
    "lat": "56.346962052",
    "long": "21.0663142928"
  },
  {
    "id": "34",
    "postcode": "3801",
    "label": "Saldus 1.pasta nodaļa",
    "working_monday": "8:00-18:00",
    "working_tuesday": "8:00-18:00",
    "working_wednesday": "8:00-18:00",
    "working_thursday": "8:00-18:00",
    "working_friday": "8:00-18:00",
    "working_saturday": "9:00 - 12:00",
    "working_sunday": "-",
    "phone": "67008001;27008001",
    "inout": "1",
    "region": "Saldus raj.",
    "city": "Saldus",
    "area": "Saldus nov.",
    "district": null,
    "village": null,
    "street": "Kuldīgas iela",
    "house": "4",
    "zipcode": "3801",
    "address": "Kuldīgas iela 4, Saldus, Saldus nov., LV-3801",
    "lat": "56.6672950027",
    "long": "22.4924685069"
  },
  {
    "id": "39",
    "postcode": "3875",
    "label": "Šķēdes pasta nodaļa",
    "working_monday": "7:00-11:00",
    "working_tuesday": "7:00-11:00",
    "working_wednesday": "7:00-11:00",
    "working_thursday": "7:00-11:00",
    "working_friday": "7:00-11:00",
    "working_saturday": "-",
    "working_sunday": "-",
    "phone": "67008001;27008001; ",
    "inout": "0",
    "region": "Saldus raj.",
    "city": null,
    "area": "Saldus nov.",
    "district": "Šķēdes pag.",
    "village": "Šķēde",
    "street": "Skolas iela",
    "house": "11",
    "zipcode": "3875",
    "address": "Skolas iela 11, Šķēde, Šķēdes pag., Saldus nov., LV-3875",
    "lat": "56.8554089206",
    "long": "22.3797885084"
  },
  {
    "id": "43",
    "postcode": "3898",
    "label": "Kalnu pasta nodaļa",
    "working_monday": "8:00-13:00",
    "working_tuesday": "8:00-13:00",
    "working_wednesday": "8:00-13:00",
    "working_thursday": "8:00-13:00",
    "working_friday": "8:00-13:00",
    "working_saturday": "-",
    "working_sunday": "-",
    "phone": "67008001;27008001",
    "inout": "0",
    "region": "Saldus raj.",
    "city": null,
    "area": "Saldus nov.",
    "district": "Nīgrandes pag.",
    "village": "Kalni",
    "street": "Kalnu iela",
    "house": "2",
    "zipcode": "3898",
    "address": "Kalnu iela 2, Kalni, Nīgrandes pag., Saldus nov., LV-3898",
    "lat": "56.4436522808",
    "long": "22.1255330162"
  },
  {
    "id": "47",
    "postcode": "1021",
    "label": "Rīgas 21.pasta nodaļa",
    "working_monday": "8:00-19:00",
    "working_tuesday": "8:00-19:00",
    "working_wednesday": "8:00-19:00",
    "working_thursday": "8:00-19:00",
    "working_friday": "8:00-19:00",
    "working_saturday": "-",
    "working_sunday": "-",
    "phone": "67008001",
    "inout": "1",
    "region": null,
    "city": "Rīga",
    "area": null,
    "district": null,
    "village": null,
    "street": "Ulbrokas iela",
    "house": "7",
    "zipcode": "1021",
    "address": "Ulbrokas iela 7, Rīga, LV-1021",
    "lat": "56.9435737873",
    "long": "24.2158964274"
  },
  {
    "id": "49",
    "postcode": "1024",
    "label": "Rīgas 24.pasta nodaļa",
    "working_monday": "8:00-19:00",
    "working_tuesday": "8:00-19:00",
    "working_wednesday": "8:00-19:00",
    "working_thursday": "8:00-19:00",
    "working_friday": "8:00-19:00",
    "working_saturday": "-",
    "working_sunday": "-",
    "phone": "67008001",
    "inout": "1",
    "region": null,
    "city": "Rīga",
    "area": null,
    "district": null,
    "village": null,
    "street": "Brīvības gatve",
    "house": "430A",
    "zipcode": "1024",
    "address": "Brīvības gatve 430A, Rīga, LV-1024",
    "lat": "56.9887052169",
    "long": "24.2385683029"
  },
  {
    "id": "51",
    "postcode": "1029",
    "label": "Rīgas 29.pasta nodaļa",
    "working_monday": "11:00-19:00",
    "working_tuesday": "11:00-19:00",
    "working_wednesday": "11:00-19:00",
    "working_thursday": "11:00-19:00",
    "working_friday": "11:00-19:00",
    "working_saturday": "-",
    "working_sunday": "-",
    "phone": "67008001",
    "inout": "1",
    "region": null,
    "city": "Rīga",
    "area": null,
    "district": null,
    "village": null,
    "street": "Ruses iela",
    "house": "9",
    "zipcode": "1029",
    "address": "Ruses iela 9, Rīga, LV-1029",
    "lat": "56.9475009828",
    "long": "24.0054567564"
  },
  {
    "id": "52",
    "postcode": "1035",
    "label": "Rīgas 35.pasta nodaļa",
    "working_monday": "8:00-19:00 ",
    "working_tuesday": "8:00-19:00 ",
    "working_wednesday": "8:00-19:00 ",
    "working_thursday": "8:00-19:00 ",
    "working_friday": "8:00-19:00 ",
    "working_saturday": "-",
    "working_sunday": "-",
    "phone": "67008001",
    "inout": "1",
    "region": null,
    "city": "Rīga",
    "area": null,
    "district": null,
    "village": null,
    "street": "Sesku iela",
    "house": "2A",
    "zipcode": "1035",
    "address": "Sesku iela 2A, Rīga, LV-1035",
    "lat": "56.9441546688",
    "long": "24.1723825976"
  },
  {
    "id": "61",
    "postcode": "3326",
    "label": "Skrundas pasta nodaļa",
    "working_monday": "8:00-18:00",
    "working_tuesday": "8:00-18:00",
    "working_wednesday": "8:00-18:00",
    "working_thursday": "8:00-18:00",
    "working_friday": "8:00-18:00",
    "working_saturday": "8:00 - 12:00",
    "working_sunday": "-",
    "phone": "67008001;27008001",
    "inout": "0",
    "region": "Kuldīgas raj.",
    "city": "Skrunda",
    "area": "Kuldīgas nov.",
    "district": null,
    "village": null,
    "street": "Ventas iela",
    "house": "16",
    "zipcode": "3326",
    "address": "Ventas iela 16, Skrunda, Kuldīgas nov., LV-3326",
    "lat": "56.6740400216",
    "long": "22.0135727723"
  },
  {
    "id": "64",
    "postcode": "3403",
    "label": "Liepājas 3.pasta nodaļa",
    "working_monday": "10:00-20:00",
    "working_tuesday": "10:00-20:00",
    "working_wednesday": "10:00-20:00",
    "working_thursday": "10:00-20:00",
    "working_friday": "10:00-20:00",
    "working_saturday": "10:00-20:00",
    "working_sunday": "10:00-20:00",
    "phone": "67008001;27008001",
    "inout": "1",
    "region": null,
    "city": "Liepāja",
    "area": null,
    "district": null,
    "village": null,
    "street": "Jaunā ostmala",
    "house": "3/5, pasta nodaļa",
    "zipcode": "3403",
    "address": "Jaunā ostmala 3/5, pasta nodaļa, Liepāja, LV-3403",
    "lat": "56.514950183",
    "long": "21.0183250909"
  },
  {
    "id": "68",
    "postcode": "3405",
    "label": "Liepājas 5.pasta nodaļa",
    "working_monday": "8:00-18:00",
    "working_tuesday": "8:00-18:00",
    "working_wednesday": "8:00-18:00",
    "working_thursday": "8:00-18:00",
    "working_friday": "8:00-18:00",
    "working_saturday": "-",
    "working_sunday": "-",
    "phone": "67008001;27008001",
    "inout": "0",
    "region": null,
    "city": "Liepāja",
    "area": null,
    "district": null,
    "village": null,
    "street": "Siļķu iela",
    "house": "24",
    "zipcode": "3405",
    "address": "Siļķu iela 24, Liepāja, LV-3405",
    "lat": "56.5315231971",
    "long": "21.0094391694"
  },
  {
    "id": "71",
    "postcode": "3414",
    "label": "Liepājas 14.pasta nodaļa",
    "working_monday": "8:00-17:00",
    "working_tuesday": "8:00-17:00",
    "working_wednesday": "8:00-17:00",
    "working_thursday": "8:00-17:00",
    "working_friday": "8:00-17:00",
    "working_saturday": "-",
    "working_sunday": "-",
    "phone": "67008001;27008001",
    "inout": "0",
    "region": null,
    "city": "Liepāja",
    "area": null,
    "district": null,
    "village": null,
    "street": "Imantas iela",
    "house": "3",
    "zipcode": "3414",
    "address": "Imantas iela 3, Liepāja, LV-3414",
    "lat": "56.5505900362",
    "long": "21.0123306614"
  },
  {
    "id": "72",
    "postcode": "3416",
    "label": "Liepājas 16.pasta nodaļa",
    "working_monday": "8:00-18:00",
    "working_tuesday": "8:00-1800",
    "working_wednesday": "8:00-18:00",
    "working_thursday": "8:00-18:00",
    "working_friday": "8:00-18:00",
    "working_saturday": "9:00-13:00",
    "working_sunday": "-",
    "phone": "67008001;27008001",
    "inout": "0",
    "region": null,
    "city": "Liepāja",
    "area": null,
    "district": null,
    "village": null,
    "street": "Klaipēdas iela",
    "house": "74",
    "zipcode": "3416",
    "address": "Klaipēdas iela 74, Liepāja, LV-3416",
    "lat": "56.489850797",
    "long": "21.0048171153"
  },
  {
    "id": "75",
    "postcode": "3623",
    "label": "Zūru pasta nodaļa",
    "working_monday": "7:00 - 12:00",
    "working_tuesday": "7:00 - 12:00",
    "working_wednesday": "7:00 - 12:00",
    "working_thursday": "7:00 - 12:00",
    "working_friday": "7:00 - 11:00",
    "working_saturday": "-",
    "working_sunday": "-",
    "phone": "67008001;27008001",
    "inout": "0",
    "region": "Ventspils raj.",
    "city": null,
    "area": "Ventspils nov.",
    "district": "Vārves pag.",
    "village": "Zūras",
    "street": null,
    "house": "Zūras 7",
    "zipcode": "3623",
    "address": "\"Zūras 7\", Zūras, Vārves pag., Ventspils nov., LV-3623",
    "lat": "57.2564173026",
    "long": "21.6005967807"
  },
  {
    "id": "77",
    "postcode": "3701",
    "label": "Dobeles 1.pasta nodaļa",
    "working_monday": "8:00-18:00",
    "working_tuesday": "8:00-18:00",
    "working_wednesday": "8:00-18:00",
    "working_thursday": "8:00-18:00",
    "working_friday": "8:00-18:00",
    "working_saturday": "-",
    "working_sunday": "-",
    "phone": "+37167008001",
    "inout": "1",
    "region": "Dobeles raj.",
    "city": "Dobele",
    "area": "Dobeles nov.",
    "district": null,
    "village": null,
    "street": "Tirgus laukums",
    "house": "4, pasta nodaļa",
    "zipcode": "3701",
    "address": "Tirgus laukums 4, pasta nodaļa, Dobele, Dobeles nov., LV-3701",
    "lat": "56.6227950567",
    "long": "23.2806221222"
  },
  {
    "id": "78",
    "postcode": "3447",
    "label": "Lieģu pasta nodaļa",
    "working_monday": "8:00-14:00",
    "working_tuesday": "8:00-14:00",
    "working_wednesday": "8:00-14:00",
    "working_thursday": "8:00-14:00",
    "working_friday": "8:00-14:00",
    "working_saturday": "-",
    "working_sunday": "-",
    "phone": "67008001;27008001",
    "inout": "0",
    "region": "Liepājas raj.",
    "city": null,
    "area": "Dienvidkurzemes nov.",
    "district": "Tadaiķu pag.",
    "village": "Lieģi",
    "street": "Parka iela",
    "house": "2",
    "zipcode": "3447",
    "address": "Parka iela 2, Lieģi, Tadaiķu pag., Dienvidkurzemes nov., LV-3447",
    "lat": "56.5791457156",
    "long": "21.3359925699"
  },
  {
    "id": "79",
    "postcode": "2016",
    "label": "Kauguru pasta nodaļa",
    "working_monday": "8:00-19:00  ",
    "working_tuesday": "8:00-19:00  ",
    "working_wednesday": "8:00-19:00  ",
    "working_thursday": "8:00-19:00  ",
    "working_friday": "8:00-19:00  ",
    "working_saturday": "-",
    "working_sunday": "-",
    "phone": "67008001",
    "inout": "1",
    "region": null,
    "city": "Jūrmala",
    "area": null,
    "district": null,
    "village": null,
    "street": "Skolas iela",
    "house": "48",
    "zipcode": "2016",
    "address": "Skolas iela 48, Jūrmala, LV-2016",
    "lat": "56.960143459",
    "long": "23.603952829"
  },
  {
    "id": "80",
    "postcode": "1004",
    "label": "Rīgas 4.pasta nodaļa",
    "working_monday": "8:00-19:00",
    "working_tuesday": "8:00-19:00",
    "working_wednesday": "8:00-19:00",
    "working_thursday": "8:00-19:00",
    "working_friday": "8:00-19:00",
    "working_saturday": "-",
    "working_sunday": "-",
    "phone": "67008001",
    "inout": "0",
    "region": null,
    "city": "Rīga",
    "area": null,
    "district": null,
    "village": null,
    "street": "Satiksmes iela",
    "house": "2",
    "zipcode": "1004",
    "address": "Satiksmes iela 2, Rīga, LV-1004",
    "lat": "56.9270374869",
    "long": "24.0917277427"
  },
  {
    "id": "81",
    "postcode": "3891",
    "label": "Ezeres pasta nodaļa",
    "working_monday": "8:00-13:00",
    "working_tuesday": "8:00-13:00",
    "working_wednesday": "8:00-13:00",
    "working_thursday": "8:00-13:00",
    "working_friday": "8:00-13:00",
    "working_saturday": "-",
    "working_sunday": "-",
    "phone": "67008001;27008001",
    "inout": "0",
    "region": "Saldus raj.",
    "city": null,
    "area": "Saldus nov.",
    "district": "Ezeres pag.",
    "village": "Ezere",
    "street": "Centra iela",
    "house": "4",
    "zipcode": "3891",
    "address": "Centra iela 4, Ezere, Ezeres pag., Saldus nov., LV-3891",
    "lat": "56.4062300811",
    "long": "22.3607011913"
  },
  {
    "id": "82",
    "postcode": "1046",
    "label": "Rīgas 46.pasta nodaļa",
    "working_monday": "8:00-19:00",
    "working_tuesday": "8:00-19:00",
    "working_wednesday": "8:00-19:00",
    "working_thursday": "8:00-19:00",
    "working_friday": "8:00-19:00",
    "working_saturday": "-",
    "working_sunday": "-",
    "phone": "67008001",
    "inout": "1",
    "region": null,
    "city": "Rīga",
    "area": null,
    "district": null,
    "village": null,
    "street": "Kalnciema iela",
    "house": "48",
    "zipcode": "1046",
    "address": "Kalnciema iela 48, Rīga, LV-1046",
    "lat": "56.9415480591",
    "long": "24.0623689495"
  },
  {
    "id": "83",
    "postcode": "4131",
    "label": "Raunas pasta nodaļa",
    "working_monday": "8:00-11:00;12:00-16:00",
    "working_tuesday": "8:00-11:00;12:00-16:00",
    "working_wednesday": "8:00-11:00;12:00-16:00",
    "working_thursday": "8:00-11:00;12:00-16:00",
    "working_friday": "8:00-11:00;12:00-16:00",
    "working_saturday": "-",
    "working_sunday": "-",
    "phone": "67008001; 27008001",
    "inout": "0",
    "region": "Valkas raj.",
    "city": null,
    "area": "Smiltenes nov.",
    "district": "Raunas pag.",
    "village": "Rauna",
    "street": "Cēsu iela",
    "house": "6",
    "zipcode": "4131",
    "address": "Cēsu iela 6, Rauna, Raunas pag., Smiltenes nov., LV-4131",
    "lat": "57.3307319909",
    "long": "25.6062436659"
  },
  {
    "id": "84",
    "postcode": "1039",
    "label": "Rīgas 39.pasta nodaļa",
    "working_monday": "8:00-19:00",
    "working_tuesday": "8:00-19:00",
    "working_wednesday": "8:00-19:00",
    "working_thursday": "8:00-19:00",
    "working_friday": "8:00-19:00",
    "working_saturday": "-",
    "working_sunday": "-",
    "phone": "67008001",
    "inout": "1",
    "region": null,
    "city": "Rīga",
    "area": null,
    "district": null,
    "village": null,
    "street": "Brīvības gatve",
    "house": "211, pasta nodaļa",
    "zipcode": "1039",
    "address": "Brīvības gatve 211, pasta nodaļa, Rīga, LV-1039",
    "lat": "56.9748797062",
    "long": "24.1711247479"
  },
  {
    "id": "85",
    "postcode": "1044",
    "label": "Rīgas 44.pasta nodaļa",
    "working_monday": "9:00-17:00",
    "working_tuesday": "9:00-17:00",
    "working_wednesday": "9:00-17:00",
    "working_thursday": "9:00-17:00",
    "working_friday": "9:00-17:00",
    "working_saturday": "-",
    "working_sunday": "-",
    "phone": "67008001",
    "inout": "1",
    "region": "Rīgas raj.",
    "city": null,
    "area": "Mārupes nov.",
    "district": "Mārupes pag.",
    "village": "Lidosta Rīga",
    "street": "Ziemeļu iela",
    "house": "10",
    "zipcode": "1044",
    "address": "Ziemeļu iela 10, Lidosta Rīga, Mārupes pag., Mārupes nov., LV-1044",
    "lat": "56.9296738247",
    "long": "23.986877945"
  },
  {
    "id": "87",
    "postcode": "1057",
    "label": "Rīgas 57.pasta nodaļa",
    "working_monday": "8:00-20:00",
    "working_tuesday": "8:00-20:00",
    "working_wednesday": "8:00-20:00",
    "working_thursday": "8:00-20:00",
    "working_friday": "8:00-20:00",
    "working_saturday": "9:00-16:00",
    "working_sunday": "-",
    "phone": "67008001",
    "inout": "1",
    "region": null,
    "city": "Rīga",
    "area": null,
    "district": null,
    "village": null,
    "street": "Prūšu iela",
    "house": "2",
    "zipcode": "1057",
    "address": "Prūšu iela 2, Rīga, LV-1057",
    "lat": "56.9148597132",
    "long": "24.1776178432"
  },
  {
    "id": "88",
    "postcode": "1058",
    "label": "Rīgas 58.pasta nodaļa",
    "working_monday": "8:00-16:00",
    "working_tuesday": "8:00-16:00",
    "working_wednesday": "8:00-16:00",
    "working_thursday": "8:00-20:00",
    "working_friday": "8:00-16:00",
    "working_saturday": "-",
    "working_sunday": "-",
    "phone": "67008001",
    "inout": "1",
    "region": null,
    "city": "Rīga",
    "area": null,
    "district": null,
    "village": null,
    "street": "Dižozolu iela",
    "house": "21",
    "zipcode": "1058",
    "address": "Dižozolu iela 21, Rīga, LV-1058",
    "lat": "56.9030910877",
    "long": "24.0974906798"
  },
  {
    "id": "89",
    "postcode": "1063",
    "label": "Sūtījumu izsniegšanas punkts Maskavas 250 k-1",
    "working_monday": "8:00-19:00",
    "working_tuesday": "8:00-19:00",
    "working_wednesday": "8:00-19:00",
    "working_thursday": "8:00-19:00",
    "working_friday": "8:00-19:00",
    "working_saturday": "-",
    "working_sunday": "-",
    "phone": "67008001",
    "inout": "1",
    "region": null,
    "city": "Rīga",
    "area": null,
    "district": null,
    "village": null,
    "street": "Maskavas iela",
    "house": "250 k-1",
    "zipcode": "1063",
    "address": "Maskavas iela 250 k-1, Rīga, LV-1063",
    "lat": "56.9170335525",
    "long": "24.1733948091"
  },
  {
    "id": "90",
    "postcode": "1067",
    "label": "Rīgas 67.pasta nodaļa",
    "working_monday": "8:00-19:00",
    "working_tuesday": "8:00-19:00",
    "working_wednesday": "8:00-19:00",
    "working_thursday": "8:00-19:00",
    "working_friday": "8:00-19:00",
    "working_saturday": "-",
    "working_sunday": "-",
    "phone": "67008001",
    "inout": "1",
    "region": null,
    "city": "Rīga",
    "area": null,
    "district": null,
    "village": null,
    "street": "Slokas iela",
    "house": "161",
    "zipcode": "1067",
    "address": "Slokas iela 161, Rīga, LV-1067",
    "lat": "56.960231083",
    "long": "24.0339395125"
  },
  {
    "id": "91",
    "postcode": "1079",
    "label": "Rīgas 79.pasta nodaļa",
    "working_monday": "9:00-19:00",
    "working_tuesday": "9:00-19:00",
    "working_wednesday": "9:00-19:00",
    "working_thursday": "9:00-19:00",
    "working_friday": "9:00-19:00",
    "working_saturday": "-",
    "working_sunday": "-",
    "phone": "67008001",
    "inout": "1",
    "region": null,
    "city": "Rīga",
    "area": null,
    "district": null,
    "village": null,
    "street": "Gaiļezera iela",
    "house": "8",
    "zipcode": "1079",
    "address": "Gaiļezera iela 8, Rīga, LV-1079",
    "lat": "56.9680751645",
    "long": "24.2367476462"
  },
  {
    "id": "92",
    "postcode": "1082",
    "label": "Rīgas 82.pasta nodaļa",
    "working_monday": "8:00-19:00",
    "working_tuesday": "8:00-19:00",
    "working_wednesday": "8:00-19:00",
    "working_thursday": "8:00-19:00",
    "working_friday": "8:00-19:00",
    "working_saturday": "-",
    "working_sunday": "-",
    "phone": "67008001",
    "inout": "1",
    "region": null,
    "city": "Rīga",
    "area": null,
    "district": null,
    "village": null,
    "street": "Augusta Deglava iela",
    "house": "120",
    "zipcode": "1082",
    "address": "Augusta Deglava iela 120, Rīga, LV-1082",
    "lat": "56.9471690522",
    "long": "24.1969503714"
  },
  {
    "id": "93",
    "postcode": "1083",
    "label": "Rīgas 83.pasta nodaļa",
    "working_monday": "8:00-19:00",
    "working_tuesday": "8:00-16:00",
    "working_wednesday": "8:00-16:00",
    "working_thursday": "8:00-16:00",
    "working_friday": "8:00-16:00",
    "working_saturday": "-",
    "working_sunday": "-",
    "phone": "67008001",
    "inout": "1",
    "region": null,
    "city": "Rīga",
    "area": null,
    "district": null,
    "village": null,
    "street": "Dzirciema iela",
    "house": "1A",
    "zipcode": "1083",
    "address": "Dzirciema iela 1A, Rīga, LV-1083",
    "lat": "56.9496937654",
    "long": "24.0538850542"
  },
  {
    "id": "96",
    "postcode": "2008",
    "label": "Mellužu pasta nodaļa",
    "working_monday": "8:00-15:00",
    "working_tuesday": "8:00-15:00",
    "working_wednesday": "8:00-15:00",
    "working_thursday": "8:00-19:00",
    "working_friday": "8:00-15:00",
    "working_saturday": "-",
    "working_sunday": "-",
    "phone": "67008001",
    "inout": "0",
    "region": null,
    "city": "Jūrmala",
    "area": null,
    "district": null,
    "village": null,
    "street": "Mellužu prospekts",
    "house": "42 k-3",
    "zipcode": "2008",
    "address": "Mellužu prospekts 42 k-3, Jūrmala, LV-2008",
    "lat": "56.9608911102",
    "long": "23.713096898"
  },
  {
    "id": "97",
    "postcode": "2015",
    "label": "Dubultu pasta nodaļa",
    "working_monday": "8:00-19:00  ",
    "working_tuesday": "8:00-19:00  ",
    "working_wednesday": "8:00-19:00  ",
    "working_thursday": "8:00-19:00  ",
    "working_friday": "8:00-19:00  ",
    "working_saturday": "-",
    "working_sunday": "-",
    "phone": "67008001",
    "inout": "1",
    "region": null,
    "city": "Jūrmala",
    "area": null,
    "district": null,
    "village": null,
    "street": "Strēlnieku prospekts",
    "house": "16",
    "zipcode": "2015",
    "address": "Strēlnieku prospekts 16, Jūrmala, LV-2015",
    "lat": "56.9666460568",
    "long": "23.7685619002"
  },
  {
    "id": "100",
    "postcode": "2107",
    "label": "Piņķu pasta nodaļa",
    "working_monday": "7:00-14:00",
    "working_tuesday": "8:00-19:00",
    "working_wednesday": "7:00-14:00",
    "working_thursday": "8:00-19:00",
    "working_friday": "8:00-14:00",
    "working_saturday": "-",
    "working_sunday": "-",
    "phone": "67008001",
    "inout": "0",
    "region": "Rīgas raj.",
    "city": null,
    "area": "Mārupes nov.",
    "district": "Babītes pag.",
    "village": "Piņķi",
    "street": "Jūrmalas iela",
    "house": "14",
    "zipcode": "2107",
    "address": "Jūrmalas iela 14, Piņķi, Babītes pag., Mārupes nov., LV-2107",
    "lat": "56.9434290048",
    "long": "23.9121552945"
  },
  {
    "id": "101",
    "postcode": "2114",
    "label": "Olaines pasta nodaļa",
    "working_monday": "7:00-18:00",
    "working_tuesday": "7:00-18:00",
    "working_wednesday": "7:00-19:00",
    "working_thursday": "7:00-18:00",
    "working_friday": "7:00-18:00",
    "working_saturday": "-",
    "working_sunday": "-",
    "phone": "67008001",
    "inout": "1",
    "region": "Rīgas raj.",
    "city": "Olaine",
    "area": "Olaines nov.",
    "district": null,
    "village": null,
    "street": "Zeiferta iela",
    "house": "13A",
    "zipcode": "2114",
    "address": "Zeiferta iela 13A, Olaine, Olaines nov., LV-2114",
    "lat": "56.7887670415",
    "long": "23.9391735035"
  },
  {
    "id": "102",
    "postcode": "2118",
    "label": "Cekules pasta nodaļa",
    "working_monday": "8:00-15:00",
    "working_tuesday": "8:00-18:00",
    "working_wednesday": "8:00-15:00",
    "working_thursday": "8:00-18:00",
    "working_friday": "8:00-15:00",
    "working_saturday": "-",
    "working_sunday": "-",
    "phone": "67008001",
    "inout": "0",
    "region": "Rīgas raj.",
    "city": null,
    "area": "Ropažu nov.",
    "district": "Stopiņu pag.",
    "village": "Upeslejas",
    "street": "Zahārija Stopija iela",
    "house": "10",
    "zipcode": "2118",
    "address": "Zahārija Stopija iela 10, Upeslejas, Stopiņu pag., Ropažu nov., LV-2118",
    "lat": "56.9223171426",
    "long": "24.3778446298"
  },
  {
    "id": "103",
    "postcode": "2121",
    "label": "Salaspils pasta nodaļa",
    "working_monday": "8:00-19:00",
    "working_tuesday": "8:00-19:00",
    "working_wednesday": "8:00-19:00",
    "working_thursday": "8:00-19:00",
    "working_friday": "8:00-19:00",
    "working_saturday": "-",
    "working_sunday": "-",
    "phone": "67008001",
    "inout": "1",
    "region": "Rīgas raj.",
    "city": "Salaspils",
    "area": "Salaspils nov.",
    "district": null,
    "village": null,
    "street": "Skolas iela",
    "house": "5",
    "zipcode": "2121",
    "address": "Skolas iela 5, Salaspils, Salaspils nov., LV-2121",
    "lat": "56.8535086646",
    "long": "24.3349757179"
  },
  {
    "id": "105",
    "postcode": "2128",
    "label": "Titurgas pasta nodaļa",
    "working_monday": "08:30-19:00",
    "working_tuesday": "08:30-15:00",
    "working_wednesday": "08:30-15:00",
    "working_thursday": "08:30-19:00",
    "working_friday": "07:30-15:00",
    "working_saturday": "-",
    "working_sunday": "-",
    "phone": "67008001",
    "inout": "0",
    "region": "Rīgas raj.",
    "city": "Baloži",
    "area": "Ķekavas nov.",
    "district": null,
    "village": null,
    "street": "Zaļā iela",
    "house": "5",
    "zipcode": "2128",
    "address": "Zaļā iela 5, Baloži, Ķekavas nov., LV-2128",
    "lat": "56.879586204",
    "long": "24.1499330706"
  },
  {
    "id": "106",
    "postcode": "2130",
    "label": "Ulbrokas pasta nodaļa",
    "working_monday": "9:00-17:00",
    "working_tuesday": "9:00-19:00",
    "working_wednesday": "9:00-17:00",
    "working_thursday": "9:00-19:00",
    "working_friday": "9:00-17:00",
    "working_saturday": "-",
    "working_sunday": "-",
    "phone": "67008001",
    "inout": "0",
    "region": "Rīgas raj.",
    "city": null,
    "area": "Ropažu nov.",
    "district": "Stopiņu pag.",
    "village": "Ulbroka",
    "street": "Institūta iela",
    "house": "30",
    "zipcode": "2130",
    "address": "Institūta iela 30, Ulbroka, Stopiņu pag., Ropažu nov., LV-2130",
    "lat": "56.9414544161",
    "long": "24.2875566519"
  },
  {
    "id": "107",
    "postcode": "1069",
    "label": "Rīgas 69.pasta nodaļa",
    "working_monday": "8:00-19:00",
    "working_tuesday": "8:00-19:00",
    "working_wednesday": "8:00-19:00",
    "working_thursday": "8:00-19:00",
    "working_friday": "8:00-19:00",
    "working_saturday": "-",
    "working_sunday": "-",
    "phone": "67008001",
    "inout": "1",
    "region": null,
    "city": "Rīga",
    "area": null,
    "district": null,
    "village": null,
    "street": "Slokas iela",
    "house": "146",
    "zipcode": "1069",
    "address": "Slokas iela 146, Rīga, LV-1069",
    "lat": "56.9631279898",
    "long": "24.0027175069"
  },
  {
    "id": "108",
    "postcode": "2141",
    "label": "Inčukalna pasta nodaļa",
    "working_monday": "8:00-14:00",
    "working_tuesday": "8:00-14:00",
    "working_wednesday": "8:00-14:00",
    "working_thursday": "7:00-18:00",
    "working_friday": "8:00-14:00",
    "working_saturday": "-",
    "working_sunday": "-",
    "phone": " 67008001",
    "inout": "0",
    "region": "Rīgas raj.",
    "city": null,
    "area": "Siguldas nov.",
    "district": "Inčukalna pag.",
    "village": "Inčukalns",
    "street": "Miera iela",
    "house": "2",
    "zipcode": "2141",
    "address": "Miera iela 2, Inčukalns, Inčukalna pag., Siguldas nov., LV-2141",
    "lat": "57.0982659269",
    "long": "24.6847631407"
  },
  {
    "id": "109",
    "postcode": "2142",
    "label": "Lojas pasta nodaļa",
    "working_monday": "08:00-15:00",
    "working_tuesday": "08:00-15:00",
    "working_wednesday": "08:00-15:00",
    "working_thursday": "08:00-15:00",
    "working_friday": "08:00-15:00",
    "working_saturday": "-",
    "working_sunday": "-",
    "phone": "67008001; 27008001",
    "inout": "0",
    "region": "Rīgas raj.",
    "city": null,
    "area": "Saulkrastu nov.",
    "district": "Sējas pag.",
    "village": "Loja",
    "street": null,
    "house": "Jēņi",
    "zipcode": "2142",
    "address": "\"Jēņi\", Loja, Sējas pag., Saulkrastu nov., LV-2142",
    "lat": "57.1552538014",
    "long": "24.64674457"
  },
  {
    "id": "110",
    "postcode": "2160",
    "label": "Saulkrastu pasta nodaļa",
    "working_monday": "7:00-16:00",
    "working_tuesday": "7:00-16:00",
    "working_wednesday": "7:00-16:00",
    "working_thursday": "7:00-16:00",
    "working_friday": "7:00-14:00",
    "working_saturday": "-",
    "working_sunday": "-",
    "phone": "67008001",
    "inout": "0",
    "region": "Rīgas raj.",
    "city": "Saulkrasti",
    "area": "Saulkrastu nov.",
    "district": null,
    "village": null,
    "street": "Ainažu iela",
    "house": "6A",
    "zipcode": "2160",
    "address": "Ainažu iela 6A, Saulkrasti, Saulkrastu nov., LV-2160",
    "lat": "57.2626223264",
    "long": "24.4158550143"
  },
  {
    "id": "111",
    "postcode": "2163",
    "label": "Carnikavas pasta nodaļa",
    "working_monday": "8:00-18:00",
    "working_tuesday": "9:00-18:00",
    "working_wednesday": "8:00-19:00",
    "working_thursday": "9:00-18:00",
    "working_friday": "9:00-18:00",
    "working_saturday": "-",
    "working_sunday": "-",
    "phone": "67008001",
    "inout": "0",
    "region": "Rīgas raj.",
    "city": null,
    "area": "Ādažu nov.",
    "district": "Carnikavas pag.",
    "village": "Carnikava",
    "street": "Stacijas iela",
    "house": "7",
    "zipcode": "2163",
    "address": "Stacijas iela 7, Carnikava, Carnikavas pag., Ādažu nov., LV-2163",
    "lat": "57.1285640045",
    "long": "24.2782389898"
  },
  {
    "id": "112",
    "postcode": "2167",
    "label": "Mārupes pasta nodaļa",
    "working_monday": "8:00-20:00",
    "working_tuesday": "8:00-20:00",
    "working_wednesday": "8:00-20:00",
    "working_thursday": "8:00-20:00",
    "working_friday": "8:00-20:00",
    "working_saturday": "10:00-19:00",
    "working_sunday": "10:00-18:00",
    "phone": "67008001",
    "inout": "1",
    "region": "Rīgas raj.",
    "city": null,
    "area": "Mārupes nov.",
    "district": "Mārupes pag.",
    "village": "Mārupe",
    "street": "Daugavas iela",
    "house": "31",
    "zipcode": "2167",
    "address": "Daugavas iela 31, Mārupe, Mārupes pag., Mārupes nov., LV-2167",
    "lat": "56.9046552662",
    "long": "24.0549743734"
  },
  {
    "id": "113",
    "postcode": "2169",
    "label": "Salaspils 1.pasta nodaļa",
    "working_monday": "9:00-15:00",
    "working_tuesday": "9:00-19:00",
    "working_wednesday": "9:00-15:00",
    "working_thursday": "9:00-19:00",
    "working_friday": "9:00-15:00",
    "working_saturday": "-",
    "working_sunday": "-",
    "phone": "67008001",
    "inout": "0",
    "region": "Rīgas raj.",
    "city": "Salaspils",
    "area": "Salaspils nov.",
    "district": null,
    "village": null,
    "street": "Miera iela",
    "house": "24B",
    "zipcode": "2169",
    "address": "Miera iela 24B, Salaspils, Salaspils nov., LV-2169",
    "lat": "56.8637399277",
    "long": "24.3687587783"
  },
  {
    "id": "114",
    "postcode": "3001",
    "label": "Pasta centrs Jelgava",
    "working_monday": "8:00-19:00 ",
    "working_tuesday": "8:00-19:00 ",
    "working_wednesday": "8:00-19:00 ",
    "working_thursday": "8:00-19:00 ",
    "working_friday": "8:00-19:00 ",
    "working_saturday": "9:00-13:00",
    "working_sunday": "-",
    "phone": "67008001",
    "inout": "1",
    "region": null,
    "city": "Jelgava",
    "area": null,
    "district": null,
    "village": null,
    "street": "Katoļu iela",
    "house": "2B",
    "zipcode": "3001",
    "address": "Katoļu iela 2B, Jelgava, LV-3001",
    "lat": "56.651647291",
    "long": "23.724421261"
  },
  {
    "id": "120",
    "postcode": "4728",
    "label": "Sedas pasta pakalpojumu sniegšanas vieta",
    "working_monday": "-",
    "working_tuesday": "-",
    "working_wednesday": "-",
    "working_thursday": "-",
    "working_friday": "-",
    "working_saturday": "-",
    "working_sunday": "-",
    "phone": "Pasta pakalpojumi pēc pieprasījuma 67008001; 27008001",
    "inout": "0",
    "region": "Valmieras raj.",
    "city": "Seda",
    "area": "Valmieras nov.",
    "district": null,
    "village": null,
    "street": "Skolas laukums",
    "house": "1",
    "zipcode": "4728",
    "address": "Skolas laukums 1, Seda, Valmieras nov., LV-4728",
    "lat": "57.6505912692",
    "long": "25.7518154167"
  },
  {
    "id": "121",
    "postcode": "3031",
    "label": "Staļģenes pasta nodaļa",
    "working_monday": "7:00-12:00",
    "working_tuesday": "7:00-12:00",
    "working_wednesday": "7:00-12:00",
    "working_thursday": "7:00-12:00",
    "working_friday": "7:00-12:00",
    "working_saturday": "-",
    "working_sunday": "-",
    "phone": "67008001",
    "inout": "0",
    "region": "Jelgavas raj.",
    "city": null,
    "area": "Jelgavas nov.",
    "district": "Jaunsvirlaukas pag.",
    "village": "Staļģene",
    "street": "Svirlaukas iela",
    "house": "22",
    "zipcode": "3031",
    "address": "Svirlaukas iela 22, Staļģene, Jaunsvirlaukas pag., Jelgavas nov., LV-3031",
    "lat": "56.569451523",
    "long": "23.9589926621"
  },
  {
    "id": "122",
    "postcode": "3711",
    "label": "Bēnes pasta nodaļa",
    "working_monday": "7:00-15:00",
    "working_tuesday": "7:00-15:00",
    "working_wednesday": "7:00-15:00",
    "working_thursday": "7:00-15:00",
    "working_friday": "7:00-15:00",
    "working_saturday": "-",
    "working_sunday": "-",
    "phone": "67008001",
    "inout": "0",
    "region": "Dobeles raj.",
    "city": null,
    "area": "Dobeles nov.",
    "district": "Bēnes pag.",
    "village": "Bēne",
    "street": "Stacijas iela",
    "house": "9",
    "zipcode": "3711",
    "address": "Stacijas iela 9, Bēne, Bēnes pag., Dobeles nov., LV-3711",
    "lat": "56.4821476707",
    "long": "23.0670797603"
  },
  {
    "id": "123",
    "postcode": "3016",
    "label": "Kalnciema pasta nodaļa",
    "working_monday": "7:30-14:00",
    "working_tuesday": "7:30-14:00",
    "working_wednesday": "7:30-14:00",
    "working_thursday": "7:30-14:00",
    "working_friday": "7:30-14:00",
    "working_saturday": "-",
    "working_sunday": "-",
    "phone": "67008001",
    "inout": "0",
    "region": "Jelgavas raj.",
    "city": null,
    "area": "Jelgavas nov.",
    "district": "Kalnciema pag.",
    "village": "Kalnciems",
    "street": "Draudzības iela",
    "house": "3",
    "zipcode": "3016",
    "address": "Draudzības iela 3, Kalnciems, Kalnciema pag., Jelgavas nov., LV-3016",
    "lat": "56.7996007715",
    "long": "23.6150319898"
  },
  {
    "id": "125",
    "postcode": "3002",
    "label": "Jelgavas 2.pasta nodaļa",
    "working_monday": "7:00-15:00",
    "working_tuesday": "7:00-15:00",
    "working_wednesday": "7:00-15:00",
    "working_thursday": "7:00-15:00",
    "working_friday": "7:00-15:00",
    "working_saturday": "-",
    "working_sunday": "-",
    "phone": "67008001",
    "inout": "0",
    "region": null,
    "city": "Jelgava",
    "area": null,
    "district": null,
    "village": null,
    "street": "Garozas iela",
    "house": "22",
    "zipcode": "3002",
    "address": "Garozas iela 22, Jelgava, LV-3002",
    "lat": "56.6552983357",
    "long": "23.7503274897"
  },
  {
    "id": "127",
    "postcode": "3007",
    "label": "Jelgavas 7.pasta nodaļa",
    "working_monday": "8:00-14:00",
    "working_tuesday": "8:00-14:00",
    "working_wednesday": "8:00-14:00",
    "working_thursday": "8:00-14:00",
    "working_friday": "8:00-14:00",
    "working_saturday": "-",
    "working_sunday": "-",
    "phone": "67008001",
    "inout": "1",
    "region": null,
    "city": "Jelgava",
    "area": null,
    "district": null,
    "village": null,
    "street": "Satiksmes iela",
    "house": "59A",
    "zipcode": "3007",
    "address": "Satiksmes iela 59A, Jelgava, LV-3007",
    "lat": "56.6584163333",
    "long": "23.7047131821"
  },
  {
    "id": "130",
    "postcode": "3011",
    "label": "Zaļenieku pasta nodaļa",
    "working_monday": "07:00-12:00",
    "working_tuesday": "07:00-12:00",
    "working_wednesday": "07:00-12:00",
    "working_thursday": "07:00-12:00",
    "working_friday": "07:00-12:00",
    "working_saturday": "-",
    "working_sunday": "-",
    "phone": "67008001",
    "inout": "0",
    "region": "Jelgavas raj.",
    "city": null,
    "area": "Jelgavas nov.",
    "district": "Zaļenieku pag.",
    "village": "Zaļenieki",
    "street": "Centra iela",
    "house": "9",
    "zipcode": "3011",
    "address": "Centra iela 9, Zaļenieki, Zaļenieku pag., Jelgavas nov., LV-3011",
    "lat": "56.5260632336",
    "long": "23.5113650229"
  },
  {
    "id": "131",
    "postcode": "2152",
    "label": "Mālpils pasta nodaļa",
    "working_monday": "11:00-14:00",
    "working_tuesday": "11:00-14:00",
    "working_wednesday": "11:00-14:00",
    "working_thursday": "11:00-14:00",
    "working_friday": "11:00-14:00",
    "working_saturday": "-",
    "working_sunday": "-",
    "phone": " 67008001",
    "inout": "0",
    "region": "Rīgas raj.",
    "city": null,
    "area": "Siguldas nov.",
    "district": "Mālpils pag.",
    "village": "Mālpils",
    "street": "Nākotnes iela",
    "house": "8",
    "zipcode": "2152",
    "address": "Nākotnes iela 8, Mālpils, Mālpils pag., Siguldas nov., LV-2152",
    "lat": "57.0103977164",
    "long": "24.9525665923"
  },
  {
    "id": "132",
    "postcode": "2150",
    "label": "Siguldas pasta nodaļa",
    "working_monday": "8:00-18:00",
    "working_tuesday": "8:00-18:00",
    "working_wednesday": "8:00-19:00",
    "working_thursday": "8:00-18:00",
    "working_friday": "8:00-18:00",
    "working_saturday": "-",
    "working_sunday": "-",
    "phone": "67008001",
    "inout": "1",
    "region": "Rīgas raj.",
    "city": "Sigulda",
    "area": "Siguldas nov.",
    "district": null,
    "village": null,
    "street": "Pils iela",
    "house": "2",
    "zipcode": "2150",
    "address": "Pils iela 2, Sigulda, Siguldas nov., LV-2150",
    "lat": "57.1541397106",
    "long": "24.8532391668"
  },
  {
    "id": "133",
    "postcode": "3023",
    "label": "Elejas pasta nodaļa",
    "working_monday": "7:00-15:00",
    "working_tuesday": "7:00-15:00",
    "working_wednesday": "7:00-15:00",
    "working_thursday": "7:00-15:00",
    "working_friday": "7:00-15:00",
    "working_saturday": "-",
    "working_sunday": "-",
    "phone": "67008001",
    "inout": "0",
    "region": "Jelgavas raj.",
    "city": null,
    "area": "Jelgavas nov.",
    "district": "Elejas pag.",
    "village": "Eleja",
    "street": "Stacijas iela",
    "house": "1",
    "zipcode": "3023",
    "address": "Stacijas iela 1, Eleja, Elejas pag., Jelgavas nov., LV-3023",
    "lat": "56.4080265667",
    "long": "23.6813625608"
  },
  {
    "id": "135",
    "postcode": "3040",
    "label": "Nākotnes pasta nodaļa",
    "working_monday": "7:00-13:00",
    "working_tuesday": "7:00-13:00",
    "working_wednesday": "7:00-13:00",
    "working_thursday": "7:00-13:00",
    "working_friday": "7:00-13:00",
    "working_saturday": "-",
    "working_sunday": "-",
    "phone": "67008001",
    "inout": "0",
    "region": "Jelgavas raj.",
    "city": null,
    "area": "Jelgavas nov.",
    "district": "Glūdas pag.",
    "village": "Nākotne",
    "street": "Skolas iela",
    "house": "6",
    "zipcode": "3040",
    "address": "Skolas iela 6, Nākotne, Glūdas pag., Jelgavas nov., LV-3040",
    "lat": "56.6202333365",
    "long": "23.4398197251"
  },
  {
    "id": "136",
    "postcode": "3118",
    "label": "Lapmežciema pasta nodaļa",
    "working_monday": "7:00 - 12:00",
    "working_tuesday": "7:00 - 12:00",
    "working_wednesday": "7:00 - 12:00",
    "working_thursday": "7:00 - 12:00",
    "working_friday": "7:00 - 12:00",
    "working_saturday": "-",
    "working_sunday": "-",
    "phone": "67008001;27008001",
    "inout": "0",
    "region": "Tukuma raj.",
    "city": null,
    "area": "Tukuma nov.",
    "district": "Lapmežciema pag.",
    "village": "Lapmežciems",
    "street": "Liepu iela",
    "house": "4",
    "zipcode": "3118",
    "address": "Liepu iela 4, Lapmežciems, Lapmežciema pag., Tukuma nov., LV-3118",
    "lat": "57.0007479405",
    "long": "23.5121982753"
  },
  {
    "id": "138",
    "postcode": "3120",
    "label": "Kandavas pasta nodaļa",
    "working_monday": "7:00-13:00 ",
    "working_tuesday": "7:00-13:00 ",
    "working_wednesday": "7:00-13:00 ",
    "working_thursday": "7:00-13:00 ",
    "working_friday": "7:00-13:00 ",
    "working_saturday": "-",
    "working_sunday": "-",
    "phone": "67008001;27008001",
    "inout": "0",
    "region": "Tukuma raj.",
    "city": "Kandava",
    "area": "Tukuma nov.",
    "district": null,
    "village": null,
    "street": "Abavas iela",
    "house": "2",
    "zipcode": "3120",
    "address": "Abavas iela 2, Kandava, Tukuma nov., LV-3120",
    "lat": "57.034840408",
    "long": "22.7809837414"
  },
  {
    "id": "140",
    "postcode": "3014",
    "label": "Līvbērzes pasta nodaļa",
    "working_monday": "07:00-12:00",
    "working_tuesday": "07:00-12:00",
    "working_wednesday": "07:00-12:00",
    "working_thursday": "07:00-12:00",
    "working_friday": "07:00-12:00",
    "working_saturday": "-",
    "working_sunday": "-",
    "phone": "67008001",
    "inout": "0",
    "region": "Jelgavas raj.",
    "city": null,
    "area": "Jelgavas nov.",
    "district": "Līvbērzes pag.",
    "village": "Līvbērze",
    "street": "Jelgavas iela",
    "house": "4",
    "zipcode": "3014",
    "address": "Jelgavas iela 4, Līvbērze, Līvbērzes pag., Jelgavas nov., LV-3014",
    "lat": "56.6874243325",
    "long": "23.5012749503"
  },
  {
    "id": "142",
    "postcode": "3020",
    "label": "Vircavas pasta nodaļa",
    "working_monday": "8:00-13:00",
    "working_tuesday": "8:00-13:00",
    "working_wednesday": "8:00-13:00",
    "working_thursday": "8:00-13:00",
    "working_friday": "8:00-13:00",
    "working_saturday": "-",
    "working_sunday": "-",
    "phone": "67008001",
    "inout": "0",
    "region": "Jelgavas raj.",
    "city": null,
    "area": "Jelgavas nov.",
    "district": "Vircavas pag.",
    "village": "Vircava",
    "street": "Jelgavas iela",
    "house": "4",
    "zipcode": "3020",
    "address": "Jelgavas iela 4, Vircava, Vircavas pag., Jelgavas nov., LV-3020",
    "lat": "56.5588318115",
    "long": "23.7736483778"
  },
  {
    "id": "159",
    "postcode": "3718",
    "label": "Kaķenieku pasta nodaļa",
    "working_monday": "7:00-12:00",
    "working_tuesday": "7:00-12:00",
    "working_wednesday": "7:00-12:00",
    "working_thursday": "7:00-12:00",
    "working_friday": "7:00-12:00",
    "working_saturday": "-",
    "working_sunday": "-",
    "phone": "67008001",
    "inout": "0",
    "region": "Dobeles raj.",
    "city": null,
    "area": "Dobeles nov.",
    "district": "Annenieku pag.",
    "village": "Kaķenieki",
    "street": "Draudzības iela",
    "house": "1",
    "zipcode": "3718",
    "address": "Draudzības iela 1, Kaķenieki, Annenieku pag., Dobeles nov., LV-3718",
    "lat": "56.6665067044",
    "long": "23.0381770655"
  },
  {
    "id": "163",
    "postcode": "3137",
    "label": "Irlavas pasta nodaļa",
    "working_monday": "8:00 - 13:00",
    "working_tuesday": "8:00 - 13:00",
    "working_wednesday": "8:00 - 13:00",
    "working_thursday": "8:00 - 13:00",
    "working_friday": "8:00 - 12:00",
    "working_saturday": "-",
    "working_sunday": "-",
    "phone": "pasta pakalpojumi pēc pieprasījuma 67008001;27008001",
    "inout": "0",
    "region": "Tukuma raj.",
    "city": null,
    "area": "Tukuma nov.",
    "district": "Irlavas pag.",
    "village": "Irlava",
    "street": null,
    "house": "Svēteļi",
    "zipcode": "3137",
    "address": "\"Svēteļi\", Irlava, Irlavas pag., Tukuma nov., LV-3137",
    "lat": "56.8753419736",
    "long": "22.9923028484"
  },
  {
    "id": "164",
    "postcode": "3101",
    "label": "Tukuma 1.pasta nodaļa",
    "working_monday": "7:00 - 18:00",
    "working_tuesday": "7:00 - 18:00",
    "working_wednesday": "7:00 - 18:00",
    "working_thursday": "7:00 - 18:00",
    "working_friday": "7:00 - 18:00",
    "working_saturday": "9:00 - 12:00",
    "working_sunday": "-",
    "phone": "67008001;27008001",
    "inout": "1",
    "region": "Tukuma raj.",
    "city": "Tukums",
    "area": "Tukuma nov.",
    "district": null,
    "village": null,
    "street": "Pils iela",
    "house": "20",
    "zipcode": "3101",
    "address": "Pils iela 20, Tukums, Tukuma nov., LV-3101",
    "lat": "56.9662268998",
    "long": "23.1615004001"
  },
  {
    "id": "167",
    "postcode": "3270",
    "label": "Dundagas pasta nodaļa",
    "working_monday": "8:00 - 13:00",
    "working_tuesday": "8:00 - 13:00",
    "working_wednesday": "8:00 - 13:00",
    "working_thursday": "8:00 - 13:00",
    "working_friday": "8:00 - 13:00",
    "working_saturday": "-",
    "working_sunday": "-",
    "phone": "67008001;27008001",
    "inout": "0",
    "region": "Talsu raj.",
    "city": null,
    "area": "Talsu nov.",
    "district": "Dundagas pag.",
    "village": "Dundaga",
    "street": "Pils iela",
    "house": "1",
    "zipcode": "3270",
    "address": "Pils iela 1, Dundaga, Dundagas pag., Talsu nov., LV-3270",
    "lat": "57.5096402652",
    "long": "22.3515955083"
  },
  {
    "id": "169",
    "postcode": "3145",
    "label": "Jaunpils pasta nodaļa",
    "working_monday": "7:00 - 14:00",
    "working_tuesday": "7:00 - 14:00",
    "working_wednesday": "7:00 - 14:00",
    "working_thursday": "7:00 - 14:00",
    "working_friday": "7:00 - 14:00",
    "working_saturday": "-",
    "working_sunday": "-",
    "phone": "67008001;27008001",
    "inout": "0",
    "region": "Tukuma raj.",
    "city": null,
    "area": "Tukuma nov.",
    "district": "Jaunpils pag.",
    "village": "Jaunpils",
    "street": null,
    "house": "Pasta māja",
    "zipcode": "3145",
    "address": "\"Pasta māja\", Jaunpils, Jaunpils pag., Tukuma nov., LV-3145",
    "lat": "56.7312195501",
    "long": "23.013690057"
  },
  {
    "id": "171",
    "postcode": "3201",
    "label": "Talsu 1.pasta nodaļa",
    "working_monday": "7:30 - 18:00",
    "working_tuesday": "7:30 - 18:00",
    "working_wednesday": "7:30 - 18:00",
    "working_thursday": "7:30 - 18:00",
    "working_friday": "7:30 - 18:00",
    "working_saturday": "9:00 - 12:00",
    "working_sunday": "-",
    "phone": "67008001;27008001",
    "inout": "1",
    "region": "Talsu raj.",
    "city": "Talsi",
    "area": "Talsu nov.",
    "district": null,
    "village": null,
    "street": "Lielā iela",
    "house": "20",
    "zipcode": "3201",
    "address": "Lielā iela 20, Talsi, Talsu nov., LV-3201",
    "lat": "57.2443018502",
    "long": "22.5910259445"
  },
  {
    "id": "174",
    "postcode": "3260",
    "label": "Valdemārpils pasta nodaļa",
    "working_monday": "7:00 - 12:00",
    "working_tuesday": "7:00 - 12:00",
    "working_wednesday": "7:00 - 12:00",
    "working_thursday": "7:00 - 12:00",
    "working_friday": "7:00 - 12:00",
    "working_saturday": "-",
    "working_sunday": "-",
    "phone": "67008001;27008001",
    "inout": "0",
    "region": "Talsu raj.",
    "city": "Valdemārpils",
    "area": "Talsu nov.",
    "district": null,
    "village": null,
    "street": "Raiņa iela",
    "house": "16",
    "zipcode": "3260",
    "address": "Raiņa iela 16, Valdemārpils, Talsu nov., LV-3260",
    "lat": "57.3745624663",
    "long": "22.5934148644"
  },
  {
    "id": "176",
    "postcode": "3430",
    "label": "Grobiņas pasta nodaļa",
    "working_monday": "7:00-14:00",
    "working_tuesday": "7:00-14:00",
    "working_wednesday": "7:00-14:00",
    "working_thursday": "7:00-14:00",
    "working_friday": "7:00-14:00",
    "working_saturday": "-",
    "working_sunday": "-",
    "phone": "67008001;27008001",
    "inout": "0",
    "region": "Liepājas raj.",
    "city": "Grobiņa",
    "area": "Dienvidkurzemes nov.",
    "district": null,
    "village": null,
    "street": "Lielā iela",
    "house": "37",
    "zipcode": "3430",
    "address": "Lielā iela 37, Grobiņa, Dienvidkurzemes nov., LV-3430",
    "lat": "56.5353495683",
    "long": "21.1678445435"
  },
  {
    "id": "183",
    "postcode": "3324",
    "label": "Rudbāržu pasta nodaļa",
    "working_monday": "8:00 - 12:00",
    "working_tuesday": "8:00 - 12:00",
    "working_wednesday": "8:00 - 12:00",
    "working_thursday": "8:00 - 12:00",
    "working_friday": "8:00 - 11:00",
    "working_saturday": "-",
    "working_sunday": "-",
    "phone": "67008001;27008001",
    "inout": "0",
    "region": "Kuldīgas raj.",
    "city": null,
    "area": "Kuldīgas nov.",
    "district": "Rudbāržu pag.",
    "village": "Rudbārži",
    "street": "Jubilejas iela",
    "house": "2",
    "zipcode": "3324",
    "address": "Jubilejas iela 2 - 8, Rudbārži, Rudbāržu pag., Kuldīgas nov., LV-3324",
    "lat": "56.6423800099",
    "long": "21.8899996981"
  },
  {
    "id": "185",
    "postcode": "3329",
    "label": "Turlavas pasta nodaļa",
    "working_monday": "7:00 - 12:00",
    "working_tuesday": "7:00 - 12:00",
    "working_wednesday": "7:00 - 12:00",
    "working_thursday": "7:00 - 12:00",
    "working_friday": "7:00 - 11:00",
    "working_saturday": "-",
    "working_sunday": "-",
    "phone": "67008001;27008001",
    "inout": "0",
    "region": "Kuldīgas raj.",
    "city": null,
    "area": "Kuldīgas nov.",
    "district": "Turlavas pag.",
    "village": "Turlava",
    "street": null,
    "house": "Gundegas 1",
    "zipcode": "3329",
    "address": "\"Gundegas 1\", Turlava, Turlavas pag., Kuldīgas nov., LV-3329",
    "lat": "56.8327431998",
    "long": "21.776676704"
  },
  {
    "id": "186",
    "postcode": "3434",
    "label": "Priekules pasta nodaļa",
    "working_monday": "7:00 -14:00",
    "working_tuesday": "7:00 -14:00",
    "working_wednesday": "7:00 -14:00",
    "working_thursday": "7:00 -14:00",
    "working_friday": "7:00 -14:00",
    "working_saturday": "-",
    "working_sunday": "-",
    "phone": "67008001;27008001",
    "inout": "0",
    "region": "Liepājas raj.",
    "city": "Priekule",
    "area": "Dienvidkurzemes nov.",
    "district": null,
    "village": null,
    "street": "Aizputes iela",
    "house": "14A",
    "zipcode": "3434",
    "address": "Aizputes iela 14A, Priekule, Dienvidkurzemes nov., LV-3434",
    "lat": "56.4467158932",
    "long": "21.5849004902"
  },
  {
    "id": "189",
    "postcode": "3466",
    "label": "Pāvilostas pasta nodaļa",
    "working_monday": "7:00-12:00",
    "working_tuesday": "7:00-12:00",
    "working_wednesday": "7:00-12:00",
    "working_thursday": "7:00-12:00",
    "working_friday": "7:00-12:00",
    "working_saturday": "-",
    "working_sunday": "-",
    "phone": "67008001;27008001",
    "inout": "0",
    "region": "Liepājas raj.",
    "city": "Pāvilosta",
    "area": "Dienvidkurzemes nov.",
    "district": null,
    "village": null,
    "street": "Tirgus iela",
    "house": "1",
    "zipcode": "3466",
    "address": "Tirgus iela 1, Pāvilosta, Dienvidkurzemes nov., LV-3466",
    "lat": "56.88884232",
    "long": "21.1792668327"
  },
  {
    "id": "193",
    "postcode": "3264",
    "label": "Rojas pasta nodaļa",
    "working_monday": "7:00 - 12:00",
    "working_tuesday": "7:00 - 12:00",
    "working_wednesday": "7:00 - 12:00",
    "working_thursday": "7:00 - 12:00",
    "working_friday": "7:00 - 12:00",
    "working_saturday": "-",
    "working_sunday": "-",
    "phone": "67008001;27008001",
    "inout": "0",
    "region": "Talsu raj.",
    "city": null,
    "area": "Talsu nov.",
    "district": "Rojas pag.",
    "village": "Roja",
    "street": "Zvejnieku iela",
    "house": "3",
    "zipcode": "3264",
    "address": "Zvejnieku iela 3, Roja, Rojas pag., Talsu nov., LV-3264",
    "lat": "57.5019414453",
    "long": "22.8096609178"
  },
  {
    "id": "194",
    "postcode": "3477",
    "label": "Rucavas pasta nodaļa",
    "working_monday": "8:00 -13:00",
    "working_tuesday": "8:00 -13:00",
    "working_wednesday": "8:00 -13:00",
    "working_thursday": "8:00 -13:00",
    "working_friday": "8:00 -13:00",
    "working_saturday": "-",
    "working_sunday": "-",
    "phone": "67008001;27008001",
    "inout": "0",
    "region": "Liepājas raj.",
    "city": null,
    "area": "Dienvidkurzemes nov.",
    "district": "Rucavas pag.",
    "village": "Rucava",
    "street": null,
    "house": "Rucavas pamatskola",
    "zipcode": "3477",
    "address": "\"Rucavas pamatskola\", Rucava, Rucavas pag., Dienvidkurzemes nov., LV-3477",
    "lat": "56.1564571138",
    "long": "21.1531827544"
  },
  {
    "id": "195",
    "postcode": "3482",
    "label": "Bārtas pasta nodaļa",
    "working_monday": "7:00-13:00",
    "working_tuesday": "7:00-13:00",
    "working_wednesday": "7:00-13:00",
    "working_thursday": "7:00-13:00",
    "working_friday": "7:00-13:00",
    "working_saturday": "-",
    "working_sunday": "-",
    "phone": "67008001;27008001",
    "inout": "0",
    "region": "Liepājas raj.",
    "city": null,
    "area": "Dienvidkurzemes nov.",
    "district": "Bārtas pag.",
    "village": "Bārta",
    "street": null,
    "house": "Pasta ēka",
    "zipcode": "3482",
    "address": "\"Pasta ēka\", Bārta, Bārtas pag., Dienvidkurzemes nov., LV-3482",
    "lat": "56.350792527",
    "long": "21.3217110286"
  },
  {
    "id": "197",
    "postcode": "3601",
    "label": "Ventspils 1.pasta nodaļa",
    "working_monday": "8:00 - 18:00",
    "working_tuesday": "8:00 - 18:00",
    "working_wednesday": "8:00 - 18:00",
    "working_thursday": "8:00 - 18:00",
    "working_friday": "8:00 - 18:00",
    "working_saturday": "9:00 - 12:00",
    "working_sunday": "-",
    "phone": "67008001;27008001",
    "inout": "1",
    "region": null,
    "city": "Ventspils",
    "area": null,
    "district": null,
    "village": null,
    "street": "Platā iela",
    "house": "8",
    "zipcode": "3601",
    "address": "Platā iela 8, Ventspils, LV-3601",
    "lat": "57.3934891504",
    "long": "21.5628598386"
  },
  {
    "id": "198",
    "postcode": "3602",
    "label": "Ventspils 2.pasta nodaļa",
    "working_monday": "8:00 -18:00",
    "working_tuesday": "8:00-19:00",
    "working_wednesday": "8:00-18:00",
    "working_thursday": "8:00-19:00",
    "working_friday": "8:00-18:00",
    "working_saturday": "-",
    "working_sunday": "-",
    "phone": "67008001;27008001",
    "inout": "0",
    "region": null,
    "city": "Ventspils",
    "area": null,
    "district": null,
    "village": null,
    "street": "Lidotāju iela",
    "house": "24",
    "zipcode": "3602",
    "address": "Lidotāju iela 24, Ventspils, LV-3602",
    "lat": "57.4028088872",
    "long": "21.5906658288"
  },
  {
    "id": "200",
    "postcode": "3615",
    "label": "Ugāles pasta nodaļa",
    "working_monday": "7:00 - 14:00",
    "working_tuesday": "7:00 - 14:00",
    "working_wednesday": "7:00 - 14:00",
    "working_thursday": "7:00 - 14:00",
    "working_friday": "7:00 - 14:00",
    "working_saturday": "-",
    "working_sunday": "-",
    "phone": "67008001;27008001",
    "inout": "0",
    "region": "Ventspils raj.",
    "city": null,
    "area": "Ventspils nov.",
    "district": "Ugāles pag.",
    "village": "Ugāle",
    "street": "Rūpnīcas iela",
    "house": "1",
    "zipcode": "3615",
    "address": "Rūpnīcas iela 1 - 16, Ugāle, Ugāles pag., Ventspils nov., LV-3615",
    "lat": "57.2754933822",
    "long": "22.0250878943"
  },
  {
    "id": "208",
    "postcode": "3913",
    "label": "Iecavas pasta nodaļa",
    "working_monday": "7:00-16:00",
    "working_tuesday": "7:00-16:00",
    "working_wednesday": "7:00-16:00",
    "working_thursday": "7:00-16:00",
    "working_friday": "7:00-16:00",
    "working_saturday": "-",
    "working_sunday": "-",
    "phone": "67008001",
    "inout": "0",
    "region": "Bauskas raj.",
    "city": "Iecava",
    "area": "Bauskas nov.",
    "district": null,
    "village": null,
    "street": "Rīgas iela",
    "house": "12A",
    "zipcode": "3913",
    "address": "Rīgas iela 12A, Iecava, Bauskas nov., LV-3913",
    "lat": "56.5956484327",
    "long": "24.1940183407"
  },
  {
    "id": "209",
    "postcode": "5001",
    "label": "Ogres 1.pasta nodaļa",
    "working_monday": "8:00-18:00",
    "working_tuesday": "8:00-16:00",
    "working_wednesday": "8:00-16:00",
    "working_thursday": "8:00-16:00",
    "working_friday": "8:00-16:00",
    "working_saturday": "-",
    "working_sunday": "-",
    "phone": "67008001",
    "inout": "1",
    "region": "Ogres raj.",
    "city": "Ogre",
    "area": "Ogres nov.",
    "district": null,
    "village": null,
    "street": "Brīvības iela",
    "house": "38",
    "zipcode": "5001",
    "address": "Brīvības iela 38, Ogre, Ogres nov., LV-5001",
    "lat": "56.8181853413",
    "long": "24.6061632108"
  },
  {
    "id": "210",
    "postcode": "5003",
    "label": "Ogres 3.pasta nodaļa",
    "working_monday": "8:00-18:00",
    "working_tuesday": "8:00-18:00",
    "working_wednesday": "8:00-19:00",
    "working_thursday": "8:00-18:00",
    "working_friday": "8:00-18:00",
    "working_saturday": "-",
    "working_sunday": "-",
    "phone": "67008001",
    "inout": "1",
    "region": "Ogres raj.",
    "city": "Ogre",
    "area": "Ogres nov.",
    "district": null,
    "village": null,
    "street": "Mālkalnes prospekts",
    "house": "26",
    "zipcode": "5001",
    "address": "Mālkalnes prospekts 26, Ogre, Ogres nov., LV-5001",
    "lat": "56.823280286",
    "long": "24.598625939"
  },
  {
    "id": "211",
    "postcode": "3924",
    "label": "Skaistkalnes pasta nodaļa",
    "working_monday": "7:00-13:00",
    "working_tuesday": "7:00-13:00",
    "working_wednesday": "7:00-13:00",
    "working_thursday": "7:00-16:00",
    "working_friday": "7:00-13:00",
    "working_saturday": "-",
    "working_sunday": "-",
    "phone": "67008001; 25700230",
    "inout": "0",
    "region": "Bauskas raj.",
    "city": null,
    "area": "Bauskas nov.",
    "district": "Skaistkalnes pag.",
    "village": "Skaistkalne",
    "street": "Rīgas iela",
    "house": "1",
    "zipcode": "3924",
    "address": "Rīgas iela 1, Skaistkalne, Skaistkalnes pag., Bauskas nov., LV-3924",
    "lat": "56.3787526025",
    "long": "24.6448454472"
  },
  {
    "id": "216",
    "postcode": "3921",
    "label": "Pilsrundāles pasta nodaļa",
    "working_monday": "8:00-17:00",
    "working_tuesday": "8:00-14:00",
    "working_wednesday": "8:00-14:00",
    "working_thursday": "8:00-14:00",
    "working_friday": "8:00-14:00",
    "working_saturday": "-",
    "working_sunday": "-",
    "phone": "67008001",
    "inout": "0",
    "region": "Bauskas raj.",
    "city": null,
    "area": "Bauskas nov.",
    "district": "Rundāles pag.",
    "village": "Pilsrundāle",
    "street": null,
    "house": "Pilsrundāle 1",
    "zipcode": "3921",
    "address": "\"Pilsrundāle 1\", Pilsrundāle, Rundāles pag., Bauskas nov., LV-3921",
    "lat": "56.4214041665",
    "long": "24.0058489177"
  },
  {
    "id": "217",
    "postcode": "3897",
    "label": "Zaņas pasta nodaļa",
    "working_monday": "8:00 - 12:00",
    "working_tuesday": "8:00 - 12:00",
    "working_wednesday": "8:00 - 12:00",
    "working_thursday": "8:00 - 12:00",
    "working_friday": "8:00 - 12:00",
    "working_saturday": "-",
    "working_sunday": "-",
    "phone": "67008001;27008001; ",
    "inout": "0",
    "region": "Saldus raj.",
    "city": null,
    "area": "Saldus nov.",
    "district": "Zaņas pag.",
    "village": null,
    "street": null,
    "house": "Zaņas pamatskola",
    "zipcode": "3897",
    "address": "\"Zaņas pamatskola\", Zaņas pag., Saldus nov., LV-3897",
    "lat": "56.4665692881",
    "long": "22.2113287256"
  },
  {
    "id": "219",
    "postcode": "3730",
    "label": "Zelmeņu pasta nodaļa",
    "working_monday": "7:00-13:00",
    "working_tuesday": "7:00-13:00",
    "working_wednesday": "7:00-13:00",
    "working_thursday": "7:00-13:00",
    "working_friday": "7:00-13:00",
    "working_saturday": "-",
    "working_sunday": "-",
    "phone": "67008001",
    "inout": "0",
    "region": "Dobeles raj.",
    "city": null,
    "area": "Dobeles nov.",
    "district": "Tērvetes pag.",
    "village": "Zelmeņi",
    "street": null,
    "house": "Zelmeņi",
    "zipcode": "3730",
    "address": "\"Zelmeņi\", Zelmeņi, Tērvetes pag., Dobeles nov., LV-3730",
    "lat": "56.4485113496",
    "long": "23.3598131701"
  },
  {
    "id": "220",
    "postcode": "3905",
    "label": "Bārbeles pasta nodaļa",
    "working_monday": "7:30-11:30",
    "working_tuesday": "7:30-11:30",
    "working_wednesday": "7:30-11:30",
    "working_thursday": "7:30-11:30",
    "working_friday": "7:30-11:30",
    "working_saturday": "-",
    "working_sunday": "-",
    "phone": "67008001",
    "inout": "0",
    "region": "Bauskas raj.",
    "city": null,
    "area": "Bauskas nov.",
    "district": "Bārbeles pag.",
    "village": "Bārbele",
    "street": "Bauskas iela",
    "house": "2",
    "zipcode": "3905",
    "address": "Bauskas iela 2, Bārbele, Bārbeles pag., Bauskas nov., LV-3905",
    "lat": "56.4524453342",
    "long": "24.5961704013"
  },
  {
    "id": "224",
    "postcode": "3131",
    "label": "Vānes pasta nodaļa",
    "working_monday": "8:00 - 13:00",
    "working_tuesday": "8:00 - 13:00",
    "working_wednesday": "8:00 - 13:00",
    "working_thursday": "8:00 - 13:00",
    "working_friday": "8:00 - 12:00",
    "working_saturday": "-",
    "working_sunday": "-",
    "phone": "67008001;27008001",
    "inout": "0",
    "region": "Tukuma raj.",
    "city": null,
    "area": "Tukuma nov.",
    "district": "Vānes pag.",
    "village": "Vāne",
    "street": null,
    "house": "Klintis",
    "zipcode": "3131",
    "address": "\"Klintis\", Vāne, Vānes pag., Tukuma nov., LV-3131",
    "lat": "56.9236205429",
    "long": "22.5601517027"
  },
  {
    "id": "230",
    "postcode": "3933",
    "label": "Vecumnieku pasta nodaļa",
    "working_monday": "7:30-18:00",
    "working_tuesday": "7:30-15:00",
    "working_wednesday": "7:30-18:00",
    "working_thursday": "7:30-15:00",
    "working_friday": "7:30-15:00",
    "working_saturday": "-",
    "working_sunday": "-",
    "phone": "67008001",
    "inout": "0",
    "region": "Bauskas raj.",
    "city": null,
    "area": "Bauskas nov.",
    "district": "Vecumnieku pag.",
    "village": "Vecumnieki",
    "street": "Rīgas iela",
    "house": "28",
    "zipcode": "3933",
    "address": "Rīgas iela 28, Vecumnieki, Vecumnieku pag., Bauskas nov., LV-3933",
    "lat": "56.6053836421",
    "long": "24.5232512991"
  },
  {
    "id": "231",
    "postcode": "4001",
    "label": "Limbažu 1.pasta nodaļa",
    "working_monday": "8:00-17:00",
    "working_tuesday": "8:00-17:00",
    "working_wednesday": "8:00-17:00",
    "working_thursday": "8:00-17:00",
    "working_friday": "8:00-17:00",
    "working_saturday": "-",
    "working_sunday": "-",
    "phone": "67008001; 27008001",
    "inout": "1",
    "region": "Limbažu raj.",
    "city": "Limbaži",
    "area": "Limbažu nov.",
    "district": null,
    "village": null,
    "street": "Cēsu iela",
    "house": "22",
    "zipcode": "4001",
    "address": "Cēsu iela 22, Limbaži, Limbažu nov., LV-4001",
    "lat": "57.5126188786",
    "long": "24.7194473887"
  },
  {
    "id": "235",
    "postcode": "4012",
    "label": "Lēdurgas pasta nodaļa",
    "working_monday": "9:00-14:00",
    "working_tuesday": "9:00-14:00",
    "working_wednesday": "9:00-14:00",
    "working_thursday": "7:00-12:30",
    "working_friday": "9:00-14:00",
    "working_saturday": "-",
    "working_sunday": "-",
    "phone": "67008001; 27008001",
    "inout": "0",
    "region": "Rīgas raj.",
    "city": null,
    "area": "Siguldas nov.",
    "district": "Lēdurgas pag.",
    "village": "Lēdurga",
    "street": "Emiļa Melngaiļa iela",
    "house": "2",
    "zipcode": "4012",
    "address": "Emiļa Melngaiļa iela 2, Lēdurga, Lēdurgas pag., Siguldas nov., LV-4012",
    "lat": "57.3236861999",
    "long": "24.7436684834"
  },
  {
    "id": "237",
    "postcode": "4023",
    "label": "Liepupes pasta nodaļa",
    "working_monday": "7:30-11:00",
    "working_tuesday": "7:30 - 12:00",
    "working_wednesday": "7:30 - 12:00",
    "working_thursday": "7:30 - 12:00",
    "working_friday": "7:30 - 12:00",
    "working_saturday": "-",
    "working_sunday": "-",
    "phone": "67008001; 27008001",
    "inout": "0",
    "region": "Limbažu raj.",
    "city": null,
    "area": "Limbažu nov.",
    "district": "Liepupes pag.",
    "village": "Jelgavkrasti",
    "street": "Ceriņu iela",
    "house": "4",
    "zipcode": "4023",
    "address": "Ceriņu iela 4, Jelgavkrasti, Liepupes pag., Limbažu nov., LV-4023",
    "lat": "57.4703789039",
    "long": "24.4454901062"
  },
  {
    "id": "238",
    "postcode": "4151",
    "label": "Stalbes pasta nodaļa",
    "working_monday": "15:00 - 17:00",
    "working_tuesday": "15:00 - 17:00",
    "working_wednesday": "15:00 - 17:00",
    "working_thursday": "15:00 - 17:00",
    "working_friday": "15:00 - 17:00",
    "working_saturday": "-",
    "working_sunday": "-",
    "phone": "67008001",
    "inout": "0",
    "region": "Cēsu raj.",
    "city": null,
    "area": "Cēsu nov.",
    "district": "Stalbes pag.",
    "village": "Stalbe",
    "street": null,
    "house": "Līči",
    "zipcode": "4151",
    "address": "\"Līči\", Stalbe, Stalbes pag., Cēsu nov., LV-4151",
    "lat": "57.3710918324",
    "long": "25.0327746757"
  },
  {
    "id": "242",
    "postcode": "4064",
    "label": "Alojas pasta nodaļa",
    "working_monday": "8:00-16:00",
    "working_tuesday": "8:00-16:00",
    "working_wednesday": "8:00-16:00",
    "working_thursday": "8:00-16:00",
    "working_friday": "8:00-16:00",
    "working_saturday": "-",
    "working_sunday": "-",
    "phone": "67008001; 27008001",
    "inout": "0",
    "region": "Limbažu raj.",
    "city": "Aloja",
    "area": "Limbažu nov.",
    "district": null,
    "village": null,
    "street": "Kalēju iela",
    "house": "3A",
    "zipcode": "4064",
    "address": "Kalēju iela 3A, Aloja, Limbažu nov., LV-4064",
    "lat": "57.7656981188",
    "long": "24.8800213665"
  },
  {
    "id": "250",
    "postcode": "2135",
    "label": "Ropažu pasta nodaļa",
    "working_monday": "7:00-16:00",
    "working_tuesday": "7:00-16:00",
    "working_wednesday": "7:00-16:00",
    "working_thursday": "7:00-18:00",
    "working_friday": "7:00-16:00",
    "working_saturday": "-",
    "working_sunday": "-",
    "phone": "67008001",
    "inout": "0",
    "region": "Rīgas raj.",
    "city": null,
    "area": "Ropažu nov.",
    "district": "Ropažu pag.",
    "village": "Ropaži",
    "street": "Rīgas iela",
    "house": "13",
    "zipcode": "2135",
    "address": "Rīgas iela 13, Ropaži, Ropažu pag., Ropažu nov., LV-2135",
    "lat": "56.972807235",
    "long": "24.6344006303"
  },
  {
    "id": "253",
    "postcode": "5230",
    "label": "Salas pasta nodaļa",
    "working_monday": "07:30-12:00",
    "working_tuesday": "07:30-12:00",
    "working_wednesday": "07:30-12:00",
    "working_thursday": "07:30-12:00",
    "working_friday": "07:30-12:00",
    "working_saturday": "-",
    "working_sunday": "-",
    "phone": "67008001",
    "inout": "0",
    "region": "Jēkabpils raj.",
    "city": null,
    "area": "Jēkabpils nov.",
    "district": "Salas pag.",
    "village": "Sala",
    "street": "Susējas iela",
    "house": "9A",
    "zipcode": "5230",
    "address": "Susējas iela 9A, Sala, Salas pag., Jēkabpils nov., LV-5230",
    "lat": "56.5077624298",
    "long": "25.7651233558"
  },
  {
    "id": "256",
    "postcode": "3147",
    "label": "Džūkstes pasta nodaļa",
    "working_monday": "7:30 - 11:00",
    "working_tuesday": "7:30 - 13:00",
    "working_wednesday": "7:30 - 13:00",
    "working_thursday": "7:30 - 13:00",
    "working_friday": "7:30 - 13:00",
    "working_saturday": "-",
    "working_sunday": "-",
    "phone": "67008001;27008001",
    "inout": "0",
    "region": "Tukuma raj.",
    "city": null,
    "area": "Tukuma nov.",
    "district": "Džūkstes pag.",
    "village": "Džūkste",
    "street": null,
    "house": "Pasta ēka",
    "zipcode": "3147",
    "address": "\"Pasta ēka\", Džūkste, Džūkstes pag., Tukuma nov., LV-3147",
    "lat": "56.7914087401",
    "long": "23.2441002449"
  },
  {
    "id": "259",
    "postcode": "3456",
    "label": "Aizputes pasta nodaļa",
    "working_monday": "7:00-14:00",
    "working_tuesday": "7:00-14:00",
    "working_wednesday": "7:00-14:00",
    "working_thursday": "7:00-14:00",
    "working_friday": "7:00-14:00",
    "working_saturday": "-",
    "working_sunday": "-",
    "phone": "67008001;27008001",
    "inout": "0",
    "region": "Liepājas raj.",
    "city": "Aizpute",
    "area": "Dienvidkurzemes nov.",
    "district": null,
    "village": null,
    "street": "Zvaigžņu iela",
    "house": "2",
    "zipcode": "3456",
    "address": "Zvaigžņu iela 2, Aizpute, Dienvidkurzemes nov., LV-3456",
    "lat": "56.7189477048",
    "long": "21.6072798994"
  },
  {
    "id": "263",
    "postcode": "4103",
    "label": "Cēsu 3.pasta nodaļa",
    "working_monday": "8:00-18:00",
    "working_tuesday": "8:00-18:00",
    "working_wednesday": "8:00-18:00",
    "working_thursday": "8:00-18:00",
    "working_friday": "8:00-18:00",
    "working_saturday": "9:00-13:00",
    "working_sunday": "-",
    "phone": "67008001; 27008001",
    "inout": "0",
    "region": "Cēsu raj.",
    "city": "Cēsis",
    "area": "Cēsu nov.",
    "district": null,
    "village": null,
    "street": "Jāņa Poruka iela",
    "house": "19, pasta nodaļa",
    "zipcode": "4103",
    "address": "Jāņa Poruka iela 19, pasta nodaļa, Cēsis, Cēsu nov., LV-4103",
    "lat": "57.3144204151",
    "long": "25.2939540632"
  },
  {
    "id": "266",
    "postcode": "4113",
    "label": "Zaubes pasta nodaļa",
    "working_monday": "9:00-12:30",
    "working_tuesday": "9:00-12:30",
    "working_wednesday": "9:00-12:30",
    "working_thursday": "9:00-12:30",
    "working_friday": "9:00-12:30",
    "working_saturday": "-",
    "working_sunday": "-",
    "phone": "67008001; 27008001",
    "inout": "0",
    "region": "Cēsu raj.",
    "city": null,
    "area": "Cēsu nov.",
    "district": "Zaubes pag.",
    "village": "Zaube",
    "street": null,
    "house": "Ancīši",
    "zipcode": "4113",
    "address": "\"Ancīši\", Zaube, Zaubes pag., Cēsu nov., LV-4113",
    "lat": "56.9964930178",
    "long": "25.263460492"
  },
  {
    "id": "269",
    "postcode": "4119",
    "label": "Taurenes pasta nodaļa",
    "working_monday": "9:00-14:00",
    "working_tuesday": "9:00-12:00; 12:30 - 16:00",
    "working_wednesday": "9:00-12:00; 12:30 - 16:00",
    "working_thursday": "9:00-12:00; 12:30 - 16:00",
    "working_friday": "9:00-12:00; 12:30 - 16:00",
    "working_saturday": "-",
    "working_sunday": "-",
    "phone": "67008001; 27008001",
    "inout": "0",
    "region": "Cēsu raj.",
    "city": null,
    "area": "Cēsu nov.",
    "district": "Taurenes pag.",
    "village": "Taurene",
    "street": null,
    "house": "Lauras",
    "zipcode": "4119",
    "address": "\"Lauras\", Taurene, Taurenes pag., Cēsu nov., LV-4119",
    "lat": "57.1593811032",
    "long": "25.663989132"
  },
  {
    "id": "270",
    "postcode": "4122",
    "label": "Vecpiebalgas pasta nodaļa",
    "working_monday": "7:30 - 13:00",
    "working_tuesday": "7:30 - 13:00",
    "working_wednesday": "7:30 - 13:00",
    "working_thursday": "7:30 - 13:00",
    "working_friday": "7:30 - 13:00",
    "working_saturday": "-",
    "working_sunday": "-",
    "phone": "67008001",
    "inout": "0",
    "region": "Cēsu raj.",
    "city": null,
    "area": "Cēsu nov.",
    "district": "Vecpiebalgas pag.",
    "village": "Vecpiebalga",
    "street": null,
    "house": "Apšu Grava",
    "zipcode": "4122",
    "address": "\"Apšu Grava\", Vecpiebalga, Vecpiebalgas pag., Cēsu nov., LV-4122",
    "lat": "57.0591838218",
    "long": "25.8206124499"
  },
  {
    "id": "271",
    "postcode": "4125",
    "label": "Jaunpiebalgas pasta nodaļa",
    "working_monday": "8:00-11:30; 12:00 - 14:00",
    "working_tuesday": "8:00-11:30; 12:00 - 14:00",
    "working_wednesday": "8:00-11:30; 12:00 - 14:00",
    "working_thursday": "8:00-11:30; 12:00 - 14:00",
    "working_friday": "8:00-11:30; 12:00 - 14:00",
    "working_saturday": "-",
    "working_sunday": "-",
    "phone": "67008001; 27008001",
    "inout": "0",
    "region": "Cēsu raj.",
    "city": null,
    "area": "Cēsu nov.",
    "district": "Jaunpiebalgas pag.",
    "village": "Jaunpiebalga",
    "street": "Gaujas iela",
    "house": "4",
    "zipcode": "4125",
    "address": "Gaujas iela 4, Jaunpiebalga, Jaunpiebalgas pag., Cēsu nov., LV-4125",
    "lat": "57.1807058473",
    "long": "26.0540238719"
  },
  {
    "id": "272",
    "postcode": "4126",
    "label": "Priekuļu pasta nodaļa",
    "working_monday": "8:00-12:30; 13:00-16:00",
    "working_tuesday": "8:00-12:30; 13:00-16:00",
    "working_wednesday": "8:00-12:30; 13:00-16:00",
    "working_thursday": "8:00-12:30; 13:00-16:00",
    "working_friday": "8:00-12:30; 13:00-16:00",
    "working_saturday": "-",
    "working_sunday": "-",
    "phone": "67008001; 27008001",
    "inout": "0",
    "region": "Cēsu raj.",
    "city": null,
    "area": "Cēsu nov.",
    "district": "Priekuļu pag.",
    "village": "Priekuļi",
    "street": "Dārza iela",
    "house": "6",
    "zipcode": "4126",
    "address": "Dārza iela 6, Priekuļi, Priekuļu pag., Cēsu nov., LV-4126",
    "lat": "57.3105932774",
    "long": "25.3602073952"
  },
  {
    "id": "273",
    "postcode": "4128",
    "label": "Liepas pasta nodaļa",
    "working_monday": "7:30-12:00; 12;30-15:30",
    "working_tuesday": "7:30-12:00; 12;30-15:30",
    "working_wednesday": "7:30-12:00; 12;30-15:30",
    "working_thursday": "7:30-12:00; 12;30-15:30",
    "working_friday": "7:30-12:00; 12;30-15:30",
    "working_saturday": "-",
    "working_sunday": "-",
    "phone": "67008001; 27008001",
    "inout": "0",
    "region": "Cēsu raj.",
    "city": null,
    "area": "Cēsu nov.",
    "district": "Liepas pag.",
    "village": "Liepa",
    "street": "Rūpnīcas iela",
    "house": "3",
    "zipcode": "4128",
    "address": "Rūpnīcas iela 3, Liepa, Liepas pag., Cēsu nov., LV-4128",
    "lat": "57.3891604141",
    "long": "25.4195947008"
  },
  {
    "id": "281",
    "postcode": "4204",
    "label": "Valmieras 4.pasta nodaļa",
    "working_monday": "7:00- 18:00",
    "working_tuesday": "7:00- 18:00",
    "working_wednesday": "7:00- 18:00",
    "working_thursday": "7:00- 18:00",
    "working_friday": "7:00- 18:00",
    "working_saturday": "-",
    "working_sunday": "-",
    "phone": "67008001; 27008001",
    "inout": "1",
    "region": "Valmieras raj.",
    "city": "Valmiera",
    "area": "Valmieras nov.",
    "district": null,
    "village": null,
    "street": "Stacijas iela",
    "house": "1",
    "zipcode": "4201",
    "address": "Stacijas iela 1, Valmiera, Valmieras nov., LV-4201",
    "lat": "57.5344559138",
    "long": "25.4262802335"
  },
  {
    "id": "282",
    "postcode": "4206",
    "label": "Burtnieku pasta nodaļa",
    "working_monday": "8:00-13:30",
    "working_tuesday": "8:00-13:00",
    "working_wednesday": "8:00-13:00",
    "working_thursday": "8:00-13:00",
    "working_friday": "8:00-13:00",
    "working_saturday": "-",
    "working_sunday": "-",
    "phone": "67008001; 27008001",
    "inout": "0",
    "region": "Valmieras raj.",
    "city": null,
    "area": "Valmieras nov.",
    "district": "Burtnieku pag.",
    "village": "Burtnieki",
    "street": "Jāņa Vintēna iela",
    "house": "7",
    "zipcode": "4206",
    "address": "Jāņa Vintēna iela 7, Burtnieki, Burtnieku pag., Valmieras nov., LV-4206",
    "lat": "57.6952894181",
    "long": "25.275661067"
  },
  {
    "id": "285",
    "postcode": "4215",
    "label": "Mazsalacas pasta nodaļa",
    "working_monday": "8:00-16:30",
    "working_tuesday": "8:00-16:30",
    "working_wednesday": "8:00-16:30",
    "working_thursday": "8:00-16:30",
    "working_friday": "8:00-16:30",
    "working_saturday": "-",
    "working_sunday": "-",
    "phone": "67008001; 27008001",
    "inout": "0",
    "region": "Valmieras raj.",
    "city": "Mazsalaca",
    "area": "Valmieras nov.",
    "district": null,
    "village": null,
    "street": "Baznīcas iela",
    "house": "9",
    "zipcode": "4215",
    "address": "Baznīcas iela 9, Mazsalaca, Valmieras nov., LV-4215",
    "lat": "57.8591823555",
    "long": "25.0583653636"
  },
  {
    "id": "292",
    "postcode": "4240",
    "label": "Rūjienas pasta nodaļa",
    "working_monday": "8:00-18:00",
    "working_tuesday": "8:00-18:00",
    "working_wednesday": "8:00-18:00",
    "working_thursday": "8:00-18:00",
    "working_friday": "8:00-18:00",
    "working_saturday": "9:00 - 13:00",
    "working_sunday": "-",
    "phone": "67008001; 27008001",
    "inout": "0",
    "region": "Valmieras raj.",
    "city": "Rūjiena",
    "area": "Valmieras nov.",
    "district": null,
    "village": null,
    "street": "Brīvības iela",
    "house": "8",
    "zipcode": "4240",
    "address": "Brīvības iela 8, Rūjiena, Valmieras nov., LV-4240",
    "lat": "57.8974055244",
    "long": "25.3246075234"
  },
  {
    "id": "298",
    "postcode": "4301",
    "label": "Alūksnes 1.pasta nodaļa",
    "working_monday": "8:00 - 18:00",
    "working_tuesday": "8:00 - 18:00",
    "working_wednesday": "8:00 - 18:00",
    "working_thursday": "8:00 - 18:00",
    "working_friday": "8:00 - 18:00",
    "working_saturday": "9:00-13:00",
    "working_sunday": "-",
    "phone": "67008001; 27008001",
    "inout": "1",
    "region": "Alūksnes raj.",
    "city": "Alūksne",
    "area": "Alūksnes nov.",
    "district": null,
    "village": null,
    "street": "Pils iela",
    "house": "21, pasta nodaļa",
    "zipcode": "4301",
    "address": "Pils iela 21, pasta nodaļa, Alūksne, Alūksnes nov., LV-4301",
    "lat": "57.4250581901",
    "long": "27.0457766895"
  },
  {
    "id": "306",
    "postcode": "4339",
    "label": "Gaujienas pasta nodaļa",
    "working_monday": "9:00-12:30",
    "working_tuesday": "9:00-13:30",
    "working_wednesday": "9:00-13:30",
    "working_thursday": "9:00-13:30",
    "working_friday": "9:00-13:30",
    "working_saturday": "-",
    "working_sunday": "-",
    "phone": "67008001; 27008001",
    "inout": "0",
    "region": "Valkas raj.",
    "city": null,
    "area": "Smiltenes nov.",
    "district": "Gaujienas pag.",
    "village": "Gaujiena",
    "street": null,
    "house": "Baznīckalns",
    "zipcode": "4339",
    "address": "\"Baznīckalns\", Gaujiena, Gaujienas pag., Smiltenes nov., LV-4339",
    "lat": "57.5173753296",
    "long": "26.3974041297"
  },
  {
    "id": "311",
    "postcode": "4345",
    "label": "Zeltiņu pasta nodaļa",
    "working_monday": "8:00-12:00",
    "working_tuesday": "10:30-13:00 14:00-18:00",
    "working_wednesday": "8:00-13:00",
    "working_thursday": "8:00-13:00",
    "working_friday": "8:00-13:00",
    "working_saturday": "-",
    "working_sunday": "-",
    "phone": "67008001; 27008001",
    "inout": "0",
    "region": "Alūksnes raj.",
    "city": null,
    "area": "Alūksnes nov.",
    "district": "Zeltiņu pag.",
    "village": "Zeltiņi",
    "street": null,
    "house": "Tērces",
    "zipcode": "4345",
    "address": "\"Tērces\" - 16, Zeltiņi, Zeltiņu pag., Alūksnes nov., LV-4345",
    "lat": "57.3579960202",
    "long": "26.7782149542"
  },
  {
    "id": "312",
    "postcode": "4348",
    "label": "Trapenes pasta nodaļa",
    "working_monday": "8:00-13:30",
    "working_tuesday": "8:00-12:00; 12:30-14:30",
    "working_wednesday": "8:00-12:00; 12:30-14:30",
    "working_thursday": "8:00-12:00; 12:30-14:30",
    "working_friday": "8:00-12:00; 12:30-14:30",
    "working_saturday": "-",
    "working_sunday": "-",
    "phone": "67008001; 27008001",
    "inout": "0",
    "region": "Valkas raj.",
    "city": null,
    "area": "Smiltenes nov.",
    "district": "Trapenes pag.",
    "village": "Trapene",
    "street": null,
    "house": "Krustceļi",
    "zipcode": "4348",
    "address": "\"Krustceļi\", Trapene, Trapenes pag., Smiltenes nov., LV-4348",
    "lat": "57.4497476091",
    "long": "26.589976026"
  },
  {
    "id": "313",
    "postcode": "4350",
    "label": "Jaunalūksnes pasta nodaļa",
    "working_monday": "8:00-11:30",
    "working_tuesday": "8:00-11:30",
    "working_wednesday": "8:00-11:30",
    "working_thursday": "8:00-11:30",
    "working_friday": "8:00-11:30",
    "working_saturday": "-",
    "working_sunday": "-",
    "phone": "67008001; 27008001",
    "inout": "0",
    "region": "Alūksnes raj.",
    "city": null,
    "area": "Alūksnes nov.",
    "district": "Jaunalūksnes pag.",
    "village": "Kolberģis",
    "street": null,
    "house": "Kolberģis 4",
    "zipcode": "4350",
    "address": "\"Kolberģis 4\", Kolberģis, Jaunalūksnes pag., Alūksnes nov., LV-4350",
    "lat": "57.4386073769",
    "long": "27.1166080616"
  },
  {
    "id": "315",
    "postcode": "4352",
    "label": "Pededzes pasta nodaļa",
    "working_monday": "9:00-10:00",
    "working_tuesday": "9:00-10:00",
    "working_wednesday": "9:00-10:00",
    "working_thursday": "9:00-10:00",
    "working_friday": "9:00-10:00",
    "working_saturday": "-",
    "working_sunday": "-",
    "phone": " 67008001; 27008001 ",
    "inout": "0",
    "region": "Alūksnes raj.",
    "city": null,
    "area": "Alūksnes nov.",
    "district": "Pededzes pag.",
    "village": "Pededze",
    "street": null,
    "house": "Krustceles",
    "zipcode": "4352",
    "address": "\"Krustceles\", Pededze, Pededzes pag., Alūksnes nov., LV-4352",
    "lat": "57.4807038006",
    "long": "27.4468659191"
  },
  {
    "id": "316",
    "postcode": "4354",
    "label": "Liepnas pasta nodaļa",
    "working_monday": "9:30 - 13:00",
    "working_tuesday": "9:30 - 13:00",
    "working_wednesday": "9:30 - 13:00",
    "working_thursday": "9:30 - 13:00",
    "working_friday": "9:30 - 13:00",
    "working_saturday": "-",
    "working_sunday": "-",
    "phone": "67008001; 27008001",
    "inout": "0",
    "region": "Alūksnes raj.",
    "city": null,
    "area": "Alūksnes nov.",
    "district": "Liepnas pag.",
    "village": "Liepna",
    "street": null,
    "house": "Liepziedi",
    "zipcode": "4354",
    "address": "\"Liepziedi\", Liepna, Liepnas pag., Alūksnes nov., LV-4354",
    "lat": "57.3435478915",
    "long": "27.4782358037"
  },
  {
    "id": "321",
    "postcode": "4401",
    "label": "Gulbenes 1.pasta nodaļa",
    "working_monday": "8:00 - 18:00",
    "working_tuesday": "8:00 - 18:00",
    "working_wednesday": "8:00 -18:00",
    "working_thursday": "8:00 -18:00",
    "working_friday": "8:00 -18:00",
    "working_saturday": "9:00-13:00",
    "working_sunday": "-",
    "phone": "67008001; 27008001",
    "inout": "1",
    "region": "Gulbenes raj.",
    "city": "Gulbene",
    "area": "Gulbenes nov.",
    "district": null,
    "village": null,
    "street": "Rīgas iela",
    "house": "30",
    "zipcode": "4401",
    "address": "Rīgas iela 30, Gulbene, Gulbenes nov., LV-4401",
    "lat": "57.1713366009",
    "long": "26.7580691698"
  },
  {
    "id": "327",
    "postcode": "4501",
    "label": "Balvu 1.pasta nodaļa",
    "working_monday": "8:00-18:00",
    "working_tuesday": "8:00-18:00",
    "working_wednesday": "8:00-18:00",
    "working_thursday": "8:00-18:00",
    "working_friday": "8:00-18:00",
    "working_saturday": "-",
    "working_sunday": "-",
    "phone": "67008001; 27008001",
    "inout": "1",
    "region": "Balvu raj.",
    "city": "Balvi",
    "area": "Balvu nov.",
    "district": null,
    "village": null,
    "street": "Bērzpils iela",
    "house": "12",
    "zipcode": "4501",
    "address": "Bērzpils iela 12 - 2, Balvi, Balvu nov., LV-4501",
    "lat": "57.1298102094",
    "long": "27.2665420955"
  },
  {
    "id": "330",
    "postcode": "4570",
    "label": "Rugāju pasta nodaļa",
    "working_monday": "8:00-14:30",
    "working_tuesday": "8:00-14:30",
    "working_wednesday": "8:00-14:30",
    "working_thursday": "8:00-14:30",
    "working_friday": "8:00-14:30",
    "working_saturday": "-",
    "working_sunday": "-",
    "phone": "67008001; 27008001",
    "inout": "0",
    "region": "Balvu raj.",
    "city": null,
    "area": "Balvu nov.",
    "district": "Rugāju pag.",
    "village": "Rugāji",
    "street": "Kurmenes iela",
    "house": "36",
    "zipcode": "4570",
    "address": "Kurmenes iela 36, Rugāji, Rugāju pag., Balvu nov., LV-4570",
    "lat": "57.0015123832",
    "long": "27.1298151898"
  },
  {
    "id": "335",
    "postcode": "4583",
    "label": "Viļakas pasta nodaļa",
    "working_monday": "8:00-15:00",
    "working_tuesday": "8:00-15:00",
    "working_wednesday": "8:00-15:00",
    "working_thursday": "8:00-15:00",
    "working_friday": "8:00-15:00",
    "working_saturday": "-",
    "working_sunday": "-",
    "phone": "67008001; 27008001",
    "inout": "0",
    "region": "Balvu raj.",
    "city": "Viļaka",
    "area": "Balvu nov.",
    "district": null,
    "village": null,
    "street": "Balvu iela",
    "house": "5",
    "zipcode": "4583",
    "address": "Balvu iela 5, Viļaka, Balvu nov., LV-4583",
    "lat": "57.1841624105",
    "long": "27.6712378296"
  },
  {
    "id": "339",
    "postcode": "4587",
    "label": "Šķilbēnu pasta nodaļa",
    "working_monday": "9:00-14:00",
    "working_tuesday": "9:00-14:00",
    "working_wednesday": "9:00-14:00",
    "working_thursday": "9:00-14:00",
    "working_friday": "9:00-14:00",
    "working_saturday": "-",
    "working_sunday": "-",
    "phone": "67008001; 27008001",
    "inout": "0",
    "region": "Balvu raj.",
    "city": null,
    "area": "Balvu nov.",
    "district": "Šķilbēnu pag.",
    "village": "Rekova",
    "street": "Rekovas iela",
    "house": "25",
    "zipcode": "4587",
    "address": "Rekovas iela 25, Rekova, Šķilbēnu pag., Balvu nov., LV-4587",
    "lat": "57.0423601422",
    "long": "27.6177969967"
  },
  {
    "id": "341",
    "postcode": "4594",
    "label": "Baltinavas pasta nodaļa",
    "working_monday": "8:00-13:00",
    "working_tuesday": "8:00-13:00",
    "working_wednesday": "8:00-13:00",
    "working_thursday": "8:00-13:00",
    "working_friday": "8:00-13:00",
    "working_saturday": "-",
    "working_sunday": "-",
    "phone": "67008001; 27008001",
    "inout": "0",
    "region": "Balvu raj.",
    "city": null,
    "area": "Balvu nov.",
    "district": "Baltinavas pag.",
    "village": "Baltinava",
    "street": "Kārsavas iela",
    "house": "16",
    "zipcode": "4594",
    "address": "Kārsavas iela 16, Baltinava, Baltinavas pag., Balvu nov., LV-4594",
    "lat": "56.9428734116",
    "long": "27.6429230258"
  },
  {
    "id": "343",
    "postcode": "4601",
    "label": "Rēzeknes 1.pasta nodaļa",
    "working_monday": "8:00-18:00",
    "working_tuesday": "8:00-18:00",
    "working_wednesday": "8:00-18:00",
    "working_thursday": "8:00-18:00",
    "working_friday": "8:00-18:00",
    "working_saturday": "-",
    "working_sunday": "-",
    "phone": "67008001; 27008001",
    "inout": "1",
    "region": null,
    "city": "Rēzekne",
    "area": null,
    "district": null,
    "village": null,
    "street": "Atbrīvošanas aleja",
    "house": "81 k-5",
    "zipcode": "4601",
    "address": "Atbrīvošanas aleja 81 k-5, Rēzekne, LV-4601",
    "lat": "56.5050260319",
    "long": "27.3295721095"
  },
  {
    "id": "344",
    "postcode": "4604",
    "label": "Rēzeknes 4.pasta nodaļa",
    "working_monday": "7:00-18:00",
    "working_tuesday": "7:00-18:00",
    "working_wednesday": "7:00-18:00",
    "working_thursday": "7:00-18:00",
    "working_friday": "7:00-18:00",
    "working_saturday": "-",
    "working_sunday": "-",
    "phone": "67008001; 27008001",
    "inout": "1",
    "region": null,
    "city": "Rēzekne",
    "area": null,
    "district": null,
    "village": null,
    "street": "Atbrīvošanas aleja",
    "house": "155 k-1",
    "zipcode": "4604",
    "address": "Atbrīvošanas aleja 155 k-1, Rēzekne, LV-4604",
    "lat": "56.5280828095",
    "long": "27.3400553437"
  },
  {
    "id": "347",
    "postcode": "4617",
    "label": "Dukstigala pasta nodaļa",
    "working_monday": "8:00-12:00",
    "working_tuesday": "8:00-12:00",
    "working_wednesday": "8:00-12:00",
    "working_thursday": "8:00-12:00",
    "working_friday": "8:00-12:00",
    "working_saturday": "-",
    "working_sunday": "-",
    "phone": "67008001; 27008001",
    "inout": "0",
    "region": "Rēzeknes raj.",
    "city": null,
    "area": "Rēzeknes nov.",
    "district": "Čornajas pag.",
    "village": "Čornaja",
    "street": "Nākotnes iela",
    "house": "5",
    "zipcode": "4617",
    "address": "Nākotnes iela 5, Čornaja, Čornajas pag., Rēzeknes nov., LV-4617",
    "lat": "56.3849671535",
    "long": "27.4166285151"
  },
  {
    "id": "348",
    "postcode": "4416",
    "label": "Rankas pasta nodaļa",
    "working_monday": "8:00-11:30",
    "working_tuesday": "8:00-12:30 ",
    "working_wednesday": "8:00-12:30",
    "working_thursday": "8:00-12:30",
    "working_friday": "8:00-12:30",
    "working_saturday": "-",
    "working_sunday": "-",
    "phone": "67008001; 27008001",
    "inout": "0",
    "region": "Gulbenes raj.",
    "city": null,
    "area": "Gulbenes nov.",
    "district": "Rankas pag.",
    "village": "Ranka",
    "street": null,
    "house": "Krastkalni",
    "zipcode": "4416",
    "address": "\"Krastkalni\", Ranka, Rankas pag., Gulbenes nov., LV-4416",
    "lat": "57.2143064742",
    "long": "26.1821696188"
  },
  {
    "id": "351",
    "postcode": "4618",
    "label": "Gaigalavas pasta nodaļa",
    "working_monday": "08:00 - 12:00",
    "working_tuesday": "08:00 - 12:00",
    "working_wednesday": "08:00 - 12:00",
    "working_thursday": "08:00 - 12:00",
    "working_friday": "08:00 - 12:00",
    "working_saturday": "-",
    "working_sunday": "-",
    "phone": "67008001; 27008001",
    "inout": "0",
    "region": "Rēzeknes raj.",
    "city": null,
    "area": "Rēzeknes nov.",
    "district": "Gaigalavas pag.",
    "village": "Gaigalava",
    "street": "Rēzeknes iela",
    "house": "2",
    "zipcode": "4618",
    "address": "Rēzeknes iela 2, Gaigalava, Gaigalavas pag., Rēzeknes nov., LV-4618",
    "lat": "56.7324942372",
    "long": "27.0681135525"
  },
  {
    "id": "352",
    "postcode": "4619",
    "label": "Ilzeskalna pasta nodaļa",
    "working_monday": "7:00-11:00",
    "working_tuesday": "7:00-11:00",
    "working_wednesday": "7:00-11:00",
    "working_thursday": "7:00-11:00",
    "working_friday": "7:00-11:00",
    "working_saturday": "-",
    "working_sunday": "-",
    "phone": "67008001; 27008001",
    "inout": "0",
    "region": "Rēzeknes raj.",
    "city": null,
    "area": "Rēzeknes nov.",
    "district": "Ilzeskalna pag.",
    "village": "Ilzeskalns",
    "street": "Centra iela",
    "house": "1",
    "zipcode": "4619",
    "address": "Centra iela 1, Ilzeskalns, Ilzeskalna pag., Rēzeknes nov., LV-4619",
    "lat": "56.6406115282",
    "long": "27.395209283"
  },
  {
    "id": "353",
    "postcode": "4622",
    "label": "Kaunatas pasta nodaļa",
    "working_monday": "7:00-11:00",
    "working_tuesday": "7:00-11:00",
    "working_wednesday": "7:00-11:00",
    "working_thursday": "7:00-11:00",
    "working_friday": "7:00-11:00",
    "working_saturday": "-",
    "working_sunday": "-",
    "phone": "67008001; 27008001",
    "inout": "0",
    "region": "Rēzeknes raj.",
    "city": null,
    "area": "Rēzeknes nov.",
    "district": "Kaunatas pag.",
    "village": "Kaunata",
    "street": "Rāznas iela",
    "house": "38",
    "zipcode": "4622",
    "address": "Rāznas iela 38, Kaunata, Kaunatas pag., Rēzeknes nov., LV-4622",
    "lat": "56.3317343853",
    "long": "27.5463375545"
  },
  {
    "id": "355",
    "postcode": "4627",
    "label": "Lūznavas pasta nodaļa",
    "working_monday": "08:00-12:00",
    "working_tuesday": "08:00-12:00",
    "working_wednesday": "08:00-12:00",
    "working_thursday": "08:00-12:00",
    "working_friday": "08:00-12:00",
    "working_saturday": "-",
    "working_sunday": "-",
    "phone": "67008001; 27008001",
    "inout": "0",
    "region": "Rēzeknes raj.",
    "city": null,
    "area": "Rēzeknes nov.",
    "district": "Lūznavas pag.",
    "village": "Lūznava",
    "street": "Pils iela",
    "house": "6",
    "zipcode": "4627",
    "address": "Pils iela 6, Lūznava, Lūznavas pag., Rēzeknes nov., LV-4627",
    "lat": "56.358706111",
    "long": "27.2611401851"
  },
  {
    "id": "356",
    "postcode": "4630",
    "label": "Maltas pasta nodaļa",
    "working_monday": "8:00-17:00",
    "working_tuesday": "8:00-17:00",
    "working_wednesday": "8:00-17:00",
    "working_thursday": "8:00-17:00",
    "working_friday": "8:00-17:00",
    "working_saturday": "-",
    "working_sunday": "-",
    "phone": "67008001; 27008001",
    "inout": "0",
    "region": "Rēzeknes raj.",
    "city": null,
    "area": "Rēzeknes nov.",
    "district": "Maltas pag.",
    "village": "Malta",
    "street": "Stacijas iela",
    "house": "79",
    "zipcode": "4630",
    "address": "Stacijas iela 79, Malta, Maltas pag., Rēzeknes nov., LV-4630",
    "lat": "56.3461718727",
    "long": "27.1604720209"
  },
  {
    "id": "362",
    "postcode": "4636",
    "label": "Ružinas pasta nodaļa",
    "working_monday": "8:00-12:00",
    "working_tuesday": "8:00-12:00",
    "working_wednesday": "8:00-12:00",
    "working_thursday": "8:00-12:00",
    "working_friday": "8:00-12:00",
    "working_saturday": "-",
    "working_sunday": "-",
    "phone": "67008001; 27008001",
    "inout": "0",
    "region": "Rēzeknes raj.",
    "city": null,
    "area": "Rēzeknes nov.",
    "district": "Silmalas pag.",
    "village": null,
    "street": null,
    "house": "Ružina",
    "zipcode": "4636",
    "address": "\"Ružina\", Silmalas pag., Rēzeknes nov., LV-4636",
    "lat": "56.4423416832",
    "long": "27.0879762761"
  },
  {
    "id": "364",
    "postcode": "4643",
    "label": "Strūžānu pasta nodaļa",
    "working_monday": "8:00-12:00",
    "working_tuesday": "8:00-12:00",
    "working_wednesday": "8:00-12:00",
    "working_thursday": "8:00-12:00",
    "working_friday": "8:00-12:00",
    "working_saturday": "-",
    "working_sunday": "-",
    "phone": "67008001; 27008001",
    "inout": "0",
    "region": "Rēzeknes raj.",
    "city": null,
    "area": "Rēzeknes nov.",
    "district": "Stružānu pag.",
    "village": "Strūžāni",
    "street": "Miera iela",
    "house": "14",
    "zipcode": "4643",
    "address": "Miera iela 14, Strūžāni, Stružānu pag., Rēzeknes nov., LV-4643",
    "lat": "56.6955621322",
    "long": "27.2374677551"
  },
  {
    "id": "367",
    "postcode": "4652",
    "label": "Nautrēnu pasta nodaļa",
    "working_monday": "08:00-12:00",
    "working_tuesday": "08:00-12:00",
    "working_wednesday": "08:00-12:00",
    "working_thursday": "08:00-12:00",
    "working_friday": "08:00-12:00",
    "working_saturday": "-",
    "working_sunday": "-",
    "phone": "67008001; 27008001",
    "inout": "0",
    "region": "Rēzeknes raj.",
    "city": null,
    "area": "Rēzeknes nov.",
    "district": "Nautrēnu pag.",
    "village": "Rogovka",
    "street": null,
    "house": "Rogovka",
    "zipcode": "4652",
    "address": "\"Rogovka\", Rogovka, Nautrēnu pag., Rēzeknes nov., LV-4652",
    "lat": "56.7087767983",
    "long": "27.4145167905"
  },
  {
    "id": "374",
    "postcode": "4718",
    "label": "Launkalnes pasta nodaļa",
    "working_monday": "8:30 - 12:00",
    "working_tuesday": "8:30 - 12:00",
    "working_wednesday": "8:30 - 12:00",
    "working_thursday": "8:30 - 12:00",
    "working_friday": "8:30 - 12:00",
    "working_saturday": "-",
    "working_sunday": "-",
    "phone": "67008001; 27008001; ",
    "inout": "0",
    "region": "Valkas raj.",
    "city": null,
    "area": "Smiltenes nov.",
    "district": "Launkalnes pag.",
    "village": "Launkalne",
    "street": "Ezera iela",
    "house": "2A",
    "zipcode": "4718",
    "address": "Ezera iela 2A, Launkalne, Launkalnes pag., Smiltenes nov., LV-4718",
    "lat": "57.326028915",
    "long": "25.8545158029"
  },
  {
    "id": "375",
    "postcode": "4724",
    "label": "Palsmanes pasta nodaļa",
    "working_monday": "7:30-11:00",
    "working_tuesday": "7:30-13:00",
    "working_wednesday": "7:30-13:00",
    "working_thursday": "7:30-13:00",
    "working_friday": "7:30-13:00",
    "working_saturday": "-",
    "working_sunday": "-",
    "phone": "67008001; 27008001",
    "inout": "0",
    "region": "Valkas raj.",
    "city": null,
    "area": "Smiltenes nov.",
    "district": "Palsmanes pag.",
    "village": "Palsmane",
    "street": null,
    "house": "Aptieka",
    "zipcode": "4724",
    "address": "\"Aptieka\", Palsmane, Palsmanes pag., Smiltenes nov., LV-4724",
    "lat": "57.3895362185",
    "long": "26.1823203785"
  },
  {
    "id": "378",
    "postcode": "4729",
    "label": "Smiltenes pasta nodaļa",
    "working_monday": "8:00 - 18:00",
    "working_tuesday": "8:00 - 18:00",
    "working_wednesday": "8:00 - 18:00",
    "working_thursday": "8:00 - 18:00",
    "working_friday": "8:00 - 18:00",
    "working_saturday": "9:00 - 13:00",
    "working_sunday": "-",
    "phone": "67008001; 27008001",
    "inout": "1",
    "region": "Valkas raj.",
    "city": "Smiltene",
    "area": "Smiltenes nov.",
    "district": null,
    "village": null,
    "street": "Dārza iela",
    "house": "1",
    "zipcode": "4729",
    "address": "Dārza iela 1, Smiltene, Smiltenes nov., LV-4729",
    "lat": "57.4241850318",
    "long": "25.9073228713"
  },
  {
    "id": "381",
    "postcode": "4701",
    "label": "Valkas 1.pasta nodaļa",
    "working_monday": "8:00 - 18:00",
    "working_tuesday": "8:00 - 18:00",
    "working_wednesday": "8:00 - 18:00",
    "working_thursday": "8:00 - 18:00",
    "working_friday": "8:00 - 18:00",
    "working_saturday": "9:00 - 13:00-",
    "working_sunday": "-",
    "phone": "67008001; 27008001",
    "inout": "1",
    "region": "Valkas raj.",
    "city": "Valka",
    "area": "Valkas nov.",
    "district": null,
    "village": null,
    "street": "Semināra iela",
    "house": "15",
    "zipcode": "4701",
    "address": "Semināra iela 15, Valka, Valkas nov., LV-4701",
    "lat": "57.7734148484",
    "long": "26.0218974047"
  },
  {
    "id": "383",
    "postcode": "4824",
    "label": "Lazdonas pasta nodaļa",
    "working_monday": "8:00-12:00",
    "working_tuesday": "8:00-12:00",
    "working_wednesday": "8:00-12:00",
    "working_thursday": "8:00-12:00",
    "working_friday": "8:00-12:00",
    "working_saturday": "-",
    "working_sunday": "-",
    "phone": "67008001; 27008001",
    "inout": "0",
    "region": "Madonas raj.",
    "city": null,
    "area": "Madonas nov.",
    "district": "Lazdonas pag.",
    "village": "Lazdona",
    "street": "Dārza iela",
    "house": "17",
    "zipcode": "4824",
    "address": "Dārza iela 17 - 6, Lazdona, Lazdonas pag., Madonas nov., LV-4824",
    "lat": "56.8274002202",
    "long": "26.2450375791"
  },
  {
    "id": "387",
    "postcode": "4838",
    "label": "Varakļānu pasta nodaļa",
    "working_monday": "8:00-10:30 12:00-16:00",
    "working_tuesday": "8:00-10:30 12:00-16:00",
    "working_wednesday": "8:00-10:30 12:00-16:00",
    "working_thursday": "8:00-10:30 12:00-16:00",
    "working_friday": "8:00-10:30 12:00-16:00",
    "working_saturday": "-",
    "working_sunday": "-",
    "phone": "67008001; 27008001",
    "inout": "1",
    "region": "Madonas raj.",
    "city": "Varakļāni",
    "area": "Varakļānu nov.",
    "district": null,
    "village": null,
    "street": "Rīgas iela",
    "house": "13",
    "zipcode": "4838",
    "address": "Rīgas iela 13, Varakļāni, Varakļānu nov., LV-4838",
    "lat": "56.6097854778",
    "long": "26.7526604679"
  },
  {
    "id": "388",
    "postcode": "4840",
    "label": "Ērgļu pasta nodaļa",
    "working_monday": "7:30-14:30",
    "working_tuesday": "7:30-14:30",
    "working_wednesday": "7:30-14:30",
    "working_thursday": "7:30-14:30",
    "working_friday": "7:30-14:30",
    "working_saturday": "-",
    "working_sunday": "-",
    "phone": "67008001; 27008001",
    "inout": "0",
    "region": "Madonas raj.",
    "city": null,
    "area": "Madonas nov.",
    "district": "Ērgļu pag.",
    "village": "Ērgļi",
    "street": "Rīgas iela",
    "house": "15",
    "zipcode": "4840",
    "address": "Rīgas iela 15, Ērgļi, Ērgļu pag., Madonas nov., LV-4840",
    "lat": "56.8976306709",
    "long": "25.6336730944"
  },
  {
    "id": "392",
    "postcode": "4853",
    "label": "Bērzaunes pasta nodaļa",
    "working_monday": "9:00-12:30",
    "working_tuesday": "9:00-12:30",
    "working_wednesday": "9:00-12:30",
    "working_thursday": "9:00-12:30",
    "working_friday": "9:00-12:30",
    "working_saturday": "-",
    "working_sunday": "-",
    "phone": "67008001; 27008001",
    "inout": "0",
    "region": "Madonas raj.",
    "city": null,
    "area": "Madonas nov.",
    "district": "Bērzaunes pag.",
    "village": "Bērzaune",
    "street": "Gaiziņa iela",
    "house": "7",
    "zipcode": "4853",
    "address": "Gaiziņa iela 7, Bērzaune, Bērzaunes pag., Madonas nov., LV-4853",
    "lat": "56.8086894872",
    "long": "26.0326704802"
  },
  {
    "id": "396",
    "postcode": "4871",
    "label": "Cesvaines pasta nodaļa",
    "working_monday": "7:30-8:30; 10:30-16:00",
    "working_tuesday": "7:30-8:30; 10:30-16:00",
    "working_wednesday": "7:30-8:30; 10:30-16:00",
    "working_thursday": "7:30-8:30; 10:30-16:00",
    "working_friday": "7:30-8:30; 10:30-16:00",
    "working_saturday": "-",
    "working_sunday": "-",
    "phone": "67008001; 27008001",
    "inout": "0",
    "region": "Madonas raj.",
    "city": "Cesvaine",
    "area": "Madonas nov.",
    "district": null,
    "village": null,
    "street": "Pils iela",
    "house": "1",
    "zipcode": "4871",
    "address": "Pils iela 1, Cesvaine, Madonas nov., LV-4871",
    "lat": "56.9695106412",
    "long": "26.3127260722"
  },
  {
    "id": "403",
    "postcode": "4108",
    "label": "Līgatnes 1.pasta nodaļa",
    "working_monday": "7:30-13:00; 13:30-15:00",
    "working_tuesday": "7:30-13:00; 13:30-15:00",
    "working_wednesday": "7:30-13:00; 13:30-15:00",
    "working_thursday": "7:30-13:00; 13:30-15:00",
    "working_friday": "7:30-13:00; 13:30-15:00",
    "working_saturday": "-",
    "working_sunday": "-",
    "phone": "67008001; 27008001",
    "inout": "0",
    "region": "Cēsu raj.",
    "city": null,
    "area": "Cēsu nov.",
    "district": "Līgatnes pag.",
    "village": "Augšlīgatne",
    "street": null,
    "house": "Pasts",
    "zipcode": "4108",
    "address": "\"Pasts\", Augšlīgatne, Līgatnes pag., Cēsu nov., LV-4108",
    "lat": "57.1826914421",
    "long": "25.0330201318"
  },
  {
    "id": "404",
    "postcode": "4425",
    "label": "Lizuma pasta nodaļa",
    "working_monday": "8:30-13:00; 13:30-16:30",
    "working_tuesday": "8:30-13:00; 13:30-16:30",
    "working_wednesday": "8:30-13:00; 13:30-16:30",
    "working_thursday": "8:30-13:00; 13:30-16:30",
    "working_friday": "8:30-13:00; 13:30-16:30",
    "working_saturday": "-",
    "working_sunday": "-",
    "phone": "67008001; 27008001",
    "inout": "0",
    "region": "Gulbenes raj.",
    "city": null,
    "area": "Gulbenes nov.",
    "district": "Lizuma pag.",
    "village": "Lizums",
    "street": null,
    "house": "Akācijas",
    "zipcode": "4425",
    "address": "\"Akācijas\", Lizums, Lizuma pag., Gulbenes nov., LV-4425",
    "lat": "57.1904174758",
    "long": "26.3712180421"
  },
  {
    "id": "405",
    "postcode": "4730",
    "label": "Strenču pasta nodaļa",
    "working_monday": "8:00 - 17:00",
    "working_tuesday": "8:00 - 17:00",
    "working_wednesday": "8:00 - 17:00",
    "working_thursday": "8:00 - 17:00",
    "working_friday": "8:00 - 17:00",
    "working_saturday": "9:00-13:00",
    "working_sunday": "-",
    "phone": "67008001; 27008001",
    "inout": "0",
    "region": "Valmieras raj.",
    "city": "Strenči",
    "area": "Valmieras nov.",
    "district": null,
    "village": null,
    "street": "Pulkveža Zemitāna iela",
    "house": "5",
    "zipcode": "4730",
    "address": "Pulkveža Zemitāna iela 5, Strenči, Valmieras nov., LV-4730",
    "lat": "57.6282338884",
    "long": "25.6842187423"
  },
  {
    "id": "409",
    "postcode": "4405",
    "label": "Litenes pasta nodaļa",
    "working_monday": "7:30-11:00",
    "working_tuesday": "7:30-12:00",
    "working_wednesday": "7:30-12:00",
    "working_thursday": "7:30-12:00",
    "working_friday": "7:30-12:00",
    "working_saturday": "-",
    "working_sunday": "-",
    "phone": "67008001; 27008001",
    "inout": "0",
    "region": "Gulbenes raj.",
    "city": null,
    "area": "Gulbenes nov.",
    "district": "Litenes pag.",
    "village": "Litene",
    "street": null,
    "house": "Zeltiņi",
    "zipcode": "4405",
    "address": "\"Zeltiņi\", Litene, Litenes pag., Gulbenes nov., LV-4405",
    "lat": "57.1899827757",
    "long": "27.0259520391"
  },
  {
    "id": "411",
    "postcode": "5020",
    "label": "Ķeguma pasta nodaļa",
    "working_monday": "8:00-17:00",
    "working_tuesday": "8:00-14:00",
    "working_wednesday": "8:00-17:00",
    "working_thursday": "8:00-14:00",
    "working_friday": "8:00-17:00",
    "working_saturday": "-",
    "working_sunday": "-",
    "phone": "67008001",
    "inout": "0",
    "region": "Ogres raj.",
    "city": "Ķegums",
    "area": "Ogres nov.",
    "district": null,
    "village": null,
    "street": "Rīgas iela",
    "house": "10",
    "zipcode": "5020",
    "address": "Rīgas iela 10, Ķegums, Ogres nov., LV-5020",
    "lat": "56.7406972107",
    "long": "24.7247079599"
  },
  {
    "id": "413",
    "postcode": "5041",
    "label": "Ogresgala pasta nodaļa",
    "working_monday": "07:00-11:30",
    "working_tuesday": "07:00-11:30",
    "working_wednesday": "07:00-11:30",
    "working_thursday": "07:00-11:30",
    "working_friday": "07:00-11:30",
    "working_saturday": "-",
    "working_sunday": "-",
    "phone": "67008001",
    "inout": "0",
    "region": "Ogres raj.",
    "city": null,
    "area": "Ogres nov.",
    "district": "Ogresgala pag.",
    "village": "Ogresgals",
    "street": "Bumbieru iela",
    "house": "9",
    "zipcode": "5041",
    "address": "Bumbieru iela 9, Ogresgals, Ogresgala pag., Ogres nov., LV-5041",
    "lat": "56.8069306017",
    "long": "24.7285335318"
  },
  {
    "id": "415",
    "postcode": "5045",
    "label": "Madlienas pasta nodaļa",
    "working_monday": "7:00-13:00",
    "working_tuesday": "7:00-13:00",
    "working_wednesday": "7:00-13:00",
    "working_thursday": "7:00-13:00",
    "working_friday": "7:00-13:00",
    "working_saturday": "-",
    "working_sunday": "-",
    "phone": "67008001",
    "inout": "0",
    "region": "Ogres raj.",
    "city": null,
    "area": "Ogres nov.",
    "district": "Madlienas pag.",
    "village": "Madliena",
    "street": null,
    "house": "ATC ēka",
    "zipcode": "5045",
    "address": "\"ATC ēka\", Madliena, Madlienas pag., Ogres nov., LV-5045",
    "lat": "56.8463381072",
    "long": "25.1542248274"
  },
  {
    "id": "416",
    "postcode": "5052",
    "label": "Ikšķiles pasta nodaļa",
    "working_monday": "8:00-18:00",
    "working_tuesday": "8:00-19:00",
    "working_wednesday": "8:00-18:00",
    "working_thursday": "8:00-19:00",
    "working_friday": "8:00-19:00",
    "working_saturday": "-",
    "working_sunday": "-",
    "phone": "67008001",
    "inout": "1",
    "region": "Ogres raj.",
    "city": "Ikšķile",
    "area": "Ogres nov.",
    "district": null,
    "village": null,
    "street": "Birzes iela",
    "house": "33",
    "zipcode": "5052",
    "address": "Birzes iela 33, Ikšķile, Ogres nov., LV-5052",
    "lat": "56.8366426976",
    "long": "24.4949296473"
  },
  {
    "id": "418",
    "postcode": "5106",
    "label": "Valles pasta nodaļa",
    "working_monday": "7:00-12:00",
    "working_tuesday": "7:00-12:00",
    "working_wednesday": "7:00-12:00",
    "working_thursday": "7:00-12:00",
    "working_friday": "7:00-12:00",
    "working_saturday": "-",
    "working_sunday": "-",
    "phone": "67008001",
    "inout": "0",
    "region": "Bauskas raj.",
    "city": null,
    "area": "Bauskas nov.",
    "district": "Valles pag.",
    "village": "Valle",
    "street": "Rīgas iela",
    "house": "4",
    "zipcode": "5106",
    "address": "Rīgas iela 4, Valle, Valles pag., Bauskas nov., LV-5106",
    "lat": "56.5121903326",
    "long": "24.7188196561"
  },
  {
    "id": "423",
    "postcode": "5113",
    "label": "Kokneses pasta nodaļa",
    "working_monday": "7:00-16:00",
    "working_tuesday": "7:00-16:00",
    "working_wednesday": "7:00-16:00",
    "working_thursday": "7:00-16:00",
    "working_friday": "7:00-16:00",
    "working_saturday": "-",
    "working_sunday": "-",
    "phone": "67008001",
    "inout": "0",
    "region": "Aizkraukles raj.",
    "city": "Koknese",
    "area": "Aizkraukles nov.",
    "district": null,
    "village": null,
    "street": "1905. gada iela",
    "house": "7",
    "zipcode": "5113",
    "address": "1905. gada iela 7, Koknese, Aizkraukles nov., LV-5113",
    "lat": "56.6446068308",
    "long": "25.4321887773"
  },
  {
    "id": "425",
    "postcode": "5120",
    "label": "Pļaviņu pasta nodaļa",
    "working_monday": "7:00-16:00",
    "working_tuesday": "7:00-16:00",
    "working_wednesday": "7:00-16:00",
    "working_thursday": "7:00-16:00",
    "working_friday": "7:00-16:00",
    "working_saturday": "-",
    "working_sunday": "-",
    "phone": "67008001;",
    "inout": "0",
    "region": "Aizkraukles raj.",
    "city": "Pļaviņas",
    "area": "Aizkraukles nov.",
    "district": null,
    "village": null,
    "street": "Stacijas iela",
    "house": "2",
    "zipcode": "5120",
    "address": "Stacijas iela 2, Pļaviņas, Aizkraukles nov., LV-5120",
    "lat": "56.6169487712",
    "long": "25.7181452709"
  },
  {
    "id": "426",
    "postcode": "5124",
    "label": "Seces pasta nodaļa",
    "working_monday": "07:00-12:00",
    "working_tuesday": "07:00-12:00",
    "working_wednesday": "07:00-12:00",
    "working_thursday": "07:00-12:00",
    "working_friday": "07:00-12:00",
    "working_saturday": "-",
    "working_sunday": "-",
    "phone": "67008001",
    "inout": "0",
    "region": "Aizkraukles raj.",
    "city": null,
    "area": "Aizkraukles nov.",
    "district": "Seces pag.",
    "village": "Sece",
    "street": null,
    "house": "Aptieka",
    "zipcode": "5124",
    "address": "\"Aptieka\", Sece, Seces pag., Aizkraukles nov., LV-5124",
    "lat": "56.5582581672",
    "long": "25.4022474644"
  },
  {
    "id": "429",
    "postcode": "5134",
    "label": "Jaunjelgavas pasta nodaļa",
    "working_monday": "7:00-14:00",
    "working_tuesday": "7:00-14:00",
    "working_wednesday": "7:00-14:00",
    "working_thursday": "7:00-14:00",
    "working_friday": "7:00-14:00",
    "working_saturday": "-",
    "working_sunday": "-",
    "phone": "67008001",
    "inout": "0",
    "region": "Aizkraukles raj.",
    "city": "Jaunjelgava",
    "area": "Aizkraukles nov.",
    "district": null,
    "village": null,
    "street": "Lāčplēša iela",
    "house": "11",
    "zipcode": "5134",
    "address": "Lāčplēša iela 11, Jaunjelgava, Aizkraukles nov., LV-5134",
    "lat": "56.6178007465",
    "long": "25.0820876791"
  },
  {
    "id": "430",
    "postcode": "5201",
    "label": "Jēkabpils 1.pasta nodaļa",
    "working_monday": "8:00-18:00",
    "working_tuesday": "8:00-18:00",
    "working_wednesday": "8:00-18:00",
    "working_thursday": "8:00-18:00",
    "working_friday": "8:00-18:00",
    "working_saturday": "-",
    "working_sunday": "-",
    "phone": "+37167008001",
    "inout": "1",
    "region": "Jēkabpils raj.",
    "city": "Jēkabpils",
    "area": "Jēkabpils nov.",
    "district": null,
    "village": null,
    "street": "Brīvības iela",
    "house": "131",
    "zipcode": "5201",
    "address": "Brīvības iela 131, Jēkabpils, Jēkabpils nov., LV-5201",
    "lat": "56.4955824462",
    "long": "25.8691427205"
  },
  {
    "id": "432",
    "postcode": "5208",
    "label": "Aknīstes pasta nodaļa",
    "working_monday": "7:00-15:00",
    "working_tuesday": "7:00-15:00",
    "working_wednesday": "7:00-15:00",
    "working_thursday": "7:00-15:00",
    "working_friday": "7:00-15:00",
    "working_saturday": "-",
    "working_sunday": "-",
    "phone": "67008001",
    "inout": "0",
    "region": "Jēkabpils raj.",
    "city": "Aknīste",
    "area": "Jēkabpils nov.",
    "district": null,
    "village": null,
    "street": "Pasta iela",
    "house": "4",
    "zipcode": "5208",
    "address": "Pasta iela 4, Aknīste, Jēkabpils nov., LV-5208",
    "lat": "56.1588563674",
    "long": "25.7509910225"
  },
  {
    "id": "436",
    "postcode": "5216",
    "label": "Dunavas pasta nodaļa",
    "working_monday": "8:00-9:30; 10:30-13:00",
    "working_tuesday": "8:00-9:30; 10:30-13:00",
    "working_wednesday": "8:00-9:30; 10:30-13:00",
    "working_thursday": "8:00-9:30; 10:30-13:00",
    "working_friday": "8:00-9:30; 10:30-13:00",
    "working_saturday": "-",
    "working_sunday": "-",
    "phone": "67008001",
    "inout": "0",
    "region": "Jēkabpils raj.",
    "city": null,
    "area": "Jēkabpils nov.",
    "district": "Dunavas pag.",
    "village": "Dunava",
    "street": null,
    "house": "Kastaņi",
    "zipcode": "5216",
    "address": "\"Kastaņi\" - 2, Dunava, Dunavas pag., Jēkabpils nov., LV-5216",
    "lat": "56.2126258921",
    "long": "26.2044805612"
  },
  {
    "id": "442",
    "postcode": "5125",
    "label": "Skrīveru pasta nodaļa",
    "working_monday": "7:00-15:00",
    "working_tuesday": "7:00-15:00",
    "working_wednesday": "7:00-15:00",
    "working_thursday": "7:00-15:00",
    "working_friday": "7:00-15:00",
    "working_saturday": "-",
    "working_sunday": "-",
    "phone": "67008001",
    "inout": "0",
    "region": "Aizkraukles raj.",
    "city": null,
    "area": "Aizkraukles nov.",
    "district": "Skrīveru pag.",
    "village": "Skrīveri",
    "street": "Stacijas laukums",
    "house": "3",
    "zipcode": "5125",
    "address": "Stacijas laukums 3, Skrīveri, Skrīveru pag., Aizkraukles nov., LV-5125",
    "lat": "56.6471606697",
    "long": "25.121594893"
  },
  {
    "id": "445",
    "postcode": "5239",
    "label": "Zasas pasta nodaļa",
    "working_monday": "08:00-12:00",
    "working_tuesday": "8:00-12:00",
    "working_wednesday": "8:00-12:00",
    "working_thursday": "8:00-12:00",
    "working_friday": "8:00-12:00",
    "working_saturday": "-",
    "working_sunday": "-",
    "phone": "67008001",
    "inout": "0",
    "region": "Jēkabpils raj.",
    "city": null,
    "area": "Jēkabpils nov.",
    "district": "Zasas pag.",
    "village": "Zasa",
    "street": "Zaļā iela",
    "house": "8",
    "zipcode": "5239",
    "address": "Zaļā iela 8, Zasa, Zasas pag., Jēkabpils nov., LV-5239",
    "lat": "56.29331112",
    "long": "25.9797886805"
  },
  {
    "id": "447",
    "postcode": "5304",
    "label": "Aglonas pasta nodaļa",
    "working_monday": "08:00-12:00;    12:30-15:00;",
    "working_tuesday": "08:00-12:00;    12:30-15:00;",
    "working_wednesday": "08:00-12:00;    12:30-15:00;",
    "working_thursday": "08:00-12:00;    12:30-15:00;",
    "working_friday": "08:00-12:00;    12:30-15:00;",
    "working_saturday": "-",
    "working_sunday": "-",
    "phone": "67008001; 27008001",
    "inout": "0",
    "region": "Preiļu raj.",
    "city": null,
    "area": "Preiļu nov.",
    "district": "Aglonas pag.",
    "village": "Aglona",
    "street": "Somersētas iela",
    "house": "23",
    "zipcode": "5304",
    "address": "Somersētas iela 23, Aglona, Aglonas pag., Preiļu nov., LV-5304",
    "lat": "56.1332983648",
    "long": "27.0054940176"
  },
  {
    "id": "448",
    "postcode": "5311",
    "label": "Galēnu pasta nodaļa",
    "working_monday": "09:00-12:30",
    "working_tuesday": "09:00-12:30",
    "working_wednesday": "09:00-12:30",
    "working_thursday": "09:00-12:30",
    "working_friday": "09:00-12:30",
    "working_saturday": "-",
    "working_sunday": "-",
    "phone": "67008001; 27008001",
    "inout": "0",
    "region": "Preiļu raj.",
    "city": null,
    "area": "Preiļu nov.",
    "district": "Galēnu pag.",
    "village": "Galēni",
    "street": "Liepu iela",
    "house": "1",
    "zipcode": "5311",
    "address": "Liepu iela 1, Galēni, Galēnu pag., Preiļu nov., LV-5311",
    "lat": "56.4767160569",
    "long": "26.8383005577"
  },
  {
    "id": "450",
    "postcode": "5320",
    "label": "Pelēču pasta nodaļa",
    "working_monday": "09:00 - 13:00",
    "working_tuesday": "09:00 - 13:00",
    "working_wednesday": "09:00 - 13:00",
    "working_thursday": "09:00 - 13:00",
    "working_friday": "09:00 - 13:00",
    "working_saturday": "-",
    "working_sunday": "-",
    "phone": "67008001; 27008001",
    "inout": "0",
    "region": "Preiļu raj.",
    "city": null,
    "area": "Preiļu nov.",
    "district": "Pelēču pag.",
    "village": "Pelēči",
    "street": "Liepu iela",
    "house": "6",
    "zipcode": "5320",
    "address": "Liepu iela 6, Pelēči, Pelēču pag., Preiļu nov., LV-5320",
    "lat": "56.1490659685",
    "long": "26.7242510271"
  },
  {
    "id": "452",
    "postcode": "5328",
    "label": "Rudzātu pasta nodaļa",
    "working_monday": "9:00-12:30",
    "working_tuesday": "9:00-12:30",
    "working_wednesday": "9:00-12:30",
    "working_thursday": "9:00-12:30",
    "working_friday": "9:00-12:30",
    "working_saturday": "-",
    "working_sunday": "-",
    "phone": "67008001; 27008001",
    "inout": "0",
    "region": "Preiļu raj.",
    "city": null,
    "area": "Līvānu nov.",
    "district": "Rudzātu pag.",
    "village": "Rudzāti",
    "street": "Miera iela",
    "house": "1",
    "zipcode": "5328",
    "address": "Miera iela 1, Rudzāti, Rudzātu pag., Līvānu nov., LV-5328",
    "lat": "56.4184605399",
    "long": "26.4506383609"
  },
  {
    "id": "455",
    "postcode": "5401",
    "label": "Daugavpils 1.pasta nodaļa",
    "working_monday": "8:00-19:00 ",
    "working_tuesday": "8:00-19:00",
    "working_wednesday": "8:00-19:00 ",
    "working_thursday": "8:00-19:00 ",
    "working_friday": "8:00-19:00 ",
    "working_saturday": "-",
    "working_sunday": "-",
    "phone": "67008001; 27008001",
    "inout": "1",
    "region": null,
    "city": "Daugavpils",
    "area": null,
    "district": null,
    "village": null,
    "street": "Rīgas iela",
    "house": "42A",
    "zipcode": "5401",
    "address": "Rīgas iela 42A, Daugavpils, LV-5401",
    "lat": "55.872156619",
    "long": "26.5205605117"
  },
  {
    "id": "457",
    "postcode": "5237",
    "label": "Viesītes pasta nodaļa",
    "working_monday": "8:00-14:00",
    "working_tuesday": "8:00-14:00",
    "working_wednesday": "8:00-14:00",
    "working_thursday": "8:00-14:00",
    "working_friday": "8:00-14:00",
    "working_saturday": "-",
    "working_sunday": "-",
    "phone": "67008001",
    "inout": "0",
    "region": "Jēkabpils raj.",
    "city": "Viesīte",
    "area": "Jēkabpils nov.",
    "district": null,
    "village": null,
    "street": "Smilšu iela",
    "house": "31",
    "zipcode": "5237",
    "address": "Smilšu iela 31 - 44, Viesīte, Jēkabpils nov., LV-5237",
    "lat": "56.3433955726",
    "long": "25.5650686441"
  },
  {
    "id": "458",
    "postcode": "5301",
    "label": "Preiļu 1.pasta nodaļa",
    "working_monday": "8:00-17:00",
    "working_tuesday": "8:00-17:00",
    "working_wednesday": "8:00-17:00",
    "working_thursday": "8:00-17:00",
    "working_friday": "8:00-17:00",
    "working_saturday": "-",
    "working_sunday": "-",
    "phone": "67008001; 27008001",
    "inout": "1",
    "region": "Preiļu raj.",
    "city": "Preiļi",
    "area": "Preiļu nov.",
    "district": null,
    "village": null,
    "street": "Raiņa bulvāris",
    "house": "21",
    "zipcode": "5301",
    "address": "Raiņa bulvāris 21, Preiļi, Preiļu nov., LV-5301",
    "lat": "56.2892901375",
    "long": "26.7270506925"
  },
  {
    "id": "459",
    "postcode": "5316",
    "label": "Līvānu pasta nodaļa",
    "working_monday": "8:00-18:00",
    "working_tuesday": "8:00-18:00",
    "working_wednesday": "8:00-18:00",
    "working_thursday": "8:00-18:00",
    "working_friday": "8:00-18:00",
    "working_saturday": "-",
    "working_sunday": "-",
    "phone": "67008001; 27008001",
    "inout": "1",
    "region": "Preiļu raj.",
    "city": "Līvāni",
    "area": "Līvānu nov.",
    "district": null,
    "village": null,
    "street": "Rūpniecības iela",
    "house": "1",
    "zipcode": "5316",
    "address": "Rūpniecības iela 1, Līvāni, Līvānu nov., LV-5316",
    "lat": "56.3508037814",
    "long": "26.1781239251"
  },
  {
    "id": "466",
    "postcode": "5417",
    "label": "Daugavpils 17.pasta nodaļa",
    "working_monday": "8:00-17:00 ",
    "working_tuesday": "8:00-17:00 ",
    "working_wednesday": "8:00-17:00 ",
    "working_thursday": "8:00-17:00 ",
    "working_friday": "8:00-17:00 ",
    "working_saturday": "-",
    "working_sunday": "-",
    "phone": "67008001; 27008001",
    "inout": "1",
    "region": null,
    "city": "Daugavpils",
    "area": null,
    "district": null,
    "village": null,
    "street": "Strādnieku iela",
    "house": "84",
    "zipcode": "5417",
    "address": "Strādnieku iela 84, Daugavpils, LV-5417",
    "lat": "55.8803245259",
    "long": "26.5591439574"
  },
  {
    "id": "470",
    "postcode": "5442",
    "label": "Demenes pasta nodaļa",
    "working_monday": "9:30-14:30",
    "working_tuesday": "9:30-14:30",
    "working_wednesday": "9:30-14:30",
    "working_thursday": "9:30-14:30",
    "working_friday": "9:30-14:30",
    "working_saturday": "-",
    "working_sunday": "-",
    "phone": "67008001; 27008001",
    "inout": "0",
    "region": "Daugavpils raj.",
    "city": null,
    "area": "Augšdaugavas nov.",
    "district": "Demenes pag.",
    "village": "Demene",
    "street": "Briģenes iela",
    "house": "4",
    "zipcode": "5442",
    "address": "Briģenes iela 4, Demene, Demenes pag., Augšdaugavas nov., LV-5442",
    "lat": "55.7297785704",
    "long": "26.5435916981"
  },
  {
    "id": "476",
    "postcode": "5462",
    "label": "Naujenes pasta nodaļa",
    "working_monday": "8:00-14:00",
    "working_tuesday": "8:00-14:00",
    "working_wednesday": "8:00-14:00",
    "working_thursday": "8:00-14:00",
    "working_friday": "8:00-14:00",
    "working_saturday": "-",
    "working_sunday": "-",
    "phone": "67008001; 27008001",
    "inout": "0",
    "region": "Daugavpils raj.",
    "city": null,
    "area": "Augšdaugavas nov.",
    "district": "Naujenes pag.",
    "village": "Naujene",
    "street": "Skolas iela",
    "house": "10",
    "zipcode": "5462",
    "address": "Skolas iela 10, Naujene, Naujenes pag., Augšdaugavas nov., LV-5462",
    "lat": "55.9377687768",
    "long": "26.7195203876"
  },
  {
    "id": "480",
    "postcode": "5471",
    "label": "Subates pasta nodaļa",
    "working_monday": "8:00-12:00",
    "working_tuesday": "8:00-12:00",
    "working_wednesday": "8:00-12:00",
    "working_thursday": "8:00-12:00",
    "working_friday": "8:00-12:00",
    "working_saturday": "-",
    "working_sunday": "-",
    "phone": "67008001; 27008001",
    "inout": "0",
    "region": "Daugavpils raj.",
    "city": "Subate",
    "area": "Augšdaugavas nov.",
    "district": null,
    "village": null,
    "street": "Tirgus laukums",
    "house": "20",
    "zipcode": "5471",
    "address": "Tirgus laukums 20, Subate, Augšdaugavas nov., LV-5471",
    "lat": "56.0046732681",
    "long": "25.9063000937"
  },
  {
    "id": "483",
    "postcode": "5481",
    "label": "Špoģu pasta nodaļa",
    "working_monday": "8:30-13:10",
    "working_tuesday": "8:30-13:10",
    "working_wednesday": "8:30-13:10",
    "working_thursday": "8:30-13:10",
    "working_friday": "8:30-13:10",
    "working_saturday": "-",
    "working_sunday": "-",
    "phone": "67008001; 27008001",
    "inout": "0",
    "region": "Daugavpils raj.",
    "city": null,
    "area": "Augšdaugavas nov.",
    "district": "Višķu pag.",
    "village": "Špoģi",
    "street": "Šosejas iela",
    "house": "10",
    "zipcode": "5481",
    "address": "Šosejas iela 10, Špoģi, Višķu pag., Augšdaugavas nov., LV-5481",
    "lat": "56.074217306",
    "long": "26.7319674302"
  },
  {
    "id": "484",
    "postcode": "5601",
    "label": "Krāslavas 1.pasta nodaļa",
    "working_monday": "9:00-17:00",
    "working_tuesday": "9:00-17:00",
    "working_wednesday": "9:00-17:00",
    "working_thursday": "9:00-17:00",
    "working_friday": "9:00-17:00",
    "working_saturday": "-",
    "working_sunday": "-",
    "phone": "67008001; 27008001",
    "inout": "1",
    "region": "Krāslavas raj.",
    "city": "Krāslava",
    "area": "Krāslavas nov.",
    "district": null,
    "village": null,
    "street": "Rīgas iela",
    "house": "34",
    "zipcode": "5601",
    "address": "Rīgas iela 34, Krāslava, Krāslavas nov., LV-5601",
    "lat": "55.8960734267",
    "long": "27.1640289668"
  },
  {
    "id": "486",
    "postcode": "5461",
    "label": "Mirnija pasta nodaļa",
    "working_monday": "9:00-12:40",
    "working_tuesday": "9:00-12:40",
    "working_wednesday": "9:00-12:40",
    "working_thursday": "9:00-12:40",
    "working_friday": "9:00-12:40",
    "working_saturday": "-",
    "working_sunday": "-",
    "phone": "67008001; 27008001",
    "inout": "0",
    "region": "Daugavpils raj.",
    "city": null,
    "area": "Augšdaugavas nov.",
    "district": "Laucesas pag.",
    "village": "Mirnijs",
    "street": "Miera iela",
    "house": "26",
    "zipcode": "5461",
    "address": "Miera iela 26, Mirnijs, Laucesas pag., Augšdaugavas nov., LV-5461",
    "lat": "55.8219324212",
    "long": "26.5988306211"
  },
  {
    "id": "487",
    "postcode": "5450",
    "label": "Kalupes pasta nodaļa",
    "working_monday": "9:00-14:30",
    "working_tuesday": "9:00-14:30",
    "working_wednesday": "9:00-14:30",
    "working_thursday": "9:00-14:30",
    "working_friday": "9:00-14:30",
    "working_saturday": "-",
    "working_sunday": "-",
    "phone": "67008001; 27008001",
    "inout": "0",
    "region": "Daugavpils raj.",
    "city": null,
    "area": "Augšdaugavas nov.",
    "district": "Kalupes pag.",
    "village": "Kalupe",
    "street": "Lielā iela",
    "house": "43",
    "zipcode": "5450",
    "address": "Lielā iela 43, Kalupe, Kalupes pag., Augšdaugavas nov., LV-5450",
    "lat": "56.0964193344",
    "long": "26.5518298427"
  },
  {
    "id": "488",
    "postcode": "5410",
    "label": "Daugavpils 10.pasta nodaļa",
    "working_monday": "9:00-18:00",
    "working_tuesday": "9:00-18:00",
    "working_wednesday": "9:00-18:00",
    "working_thursday": "9:00-18:00",
    "working_friday": "9:00-18:00",
    "working_saturday": "-",
    "working_sunday": "-",
    "phone": "67008001; 27008001",
    "inout": "0",
    "region": null,
    "city": "Daugavpils",
    "area": null,
    "district": null,
    "village": null,
    "street": "Jātnieku iela",
    "house": "78B",
    "zipcode": "5410",
    "address": "Jātnieku iela 78B, Daugavpils, LV-5410",
    "lat": "55.8921718796",
    "long": "26.5575947165"
  },
  {
    "id": "489",
    "postcode": "5447",
    "label": "Ilūkstes pasta nodaļa",
    "working_monday": "12:00-16:00",
    "working_tuesday": "12:00-16:00",
    "working_wednesday": "12:00-16:00",
    "working_thursday": "12:00-16:00",
    "working_friday": "12:00-16:00",
    "working_saturday": "-",
    "working_sunday": "-",
    "phone": "67008001; 27008001",
    "inout": "0",
    "region": "Daugavpils raj.",
    "city": "Ilūkste",
    "area": "Augšdaugavas nov.",
    "district": null,
    "village": null,
    "street": "Vienības laukums",
    "house": "3",
    "zipcode": "5447",
    "address": "Vienības laukums 3, Ilūkste, Augšdaugavas nov., LV-5447",
    "lat": "55.9776900693",
    "long": "26.2963258187"
  },
  {
    "id": "491",
    "postcode": "5439",
    "label": "Bebrenes pasta nodaļa",
    "working_monday": "8:00-11:30",
    "working_tuesday": "8:00-11:30",
    "working_wednesday": "8:00-11:30",
    "working_thursday": "8:00-11:30",
    "working_friday": "8:00-11:30",
    "working_saturday": "-",
    "working_sunday": "-",
    "phone": "67008001; 27008001",
    "inout": "0",
    "region": "Daugavpils raj.",
    "city": null,
    "area": "Augšdaugavas nov.",
    "district": "Bebrenes pag.",
    "village": "Bebrene",
    "street": null,
    "house": "Bebrenes māja 1",
    "zipcode": "5439",
    "address": "\"Bebrenes māja 1\", Bebrene, Bebrenes pag., Augšdaugavas nov., LV-5439",
    "lat": "56.0664119246",
    "long": "26.1323005121"
  },
  {
    "id": "495",
    "postcode": "5664",
    "label": "Indras pasta nodaļa",
    "working_monday": "08:00-14:00",
    "working_tuesday": "08:00-14:00",
    "working_wednesday": "08:00-14:00",
    "working_thursday": "08:00-14:00",
    "working_friday": "08:00-14:00",
    "working_saturday": "-",
    "working_sunday": "-",
    "phone": "67008001; 27008001",
    "inout": "0",
    "region": "Krāslavas raj.",
    "city": null,
    "area": "Krāslavas nov.",
    "district": "Indras pag.",
    "village": "Indra",
    "street": "Tirgus iela",
    "house": "4",
    "zipcode": "5664",
    "address": "Tirgus iela 4, Indra, Indras pag., Krāslavas nov., LV-5664",
    "lat": "55.8760481153",
    "long": "27.5361563586"
  },
  {
    "id": "503",
    "postcode": "5692",
    "label": "Ezernieku pasta nodaļa",
    "working_monday": "08:00-12:00",
    "working_tuesday": "08:00-12:00",
    "working_wednesday": "08:00-12:00",
    "working_thursday": "08:00-12:00",
    "working_friday": "08:00-12:00",
    "working_saturday": "-",
    "working_sunday": "-",
    "phone": "67008001; 27008001",
    "inout": "0",
    "region": "Krāslavas raj.",
    "city": null,
    "area": "Krāslavas nov.",
    "district": "Ezernieku pag.",
    "village": "Ezernieki",
    "street": null,
    "house": "Fritilārijas",
    "zipcode": "5692",
    "address": "\"Fritilārijas\", Ezernieki, Ezernieku pag., Krāslavas nov., LV-5692",
    "lat": "56.1850530792",
    "long": "27.6566943464"
  },
  {
    "id": "506",
    "postcode": "5697",
    "label": "Bērziņu pasta nodaļa",
    "working_monday": "08:00-12:00",
    "working_tuesday": "08:00-12:00",
    "working_wednesday": "08:00-12:00",
    "working_thursday": "08:00-12:00",
    "working_friday": "08:00-12:00",
    "working_saturday": "-",
    "working_sunday": "-",
    "phone": " 67008001; 27008001",
    "inout": "0",
    "region": "Krāslavas raj.",
    "city": null,
    "area": "Krāslavas nov.",
    "district": "Bērziņu pag.",
    "village": "Porečje",
    "street": "Bērzu iela",
    "house": "2",
    "zipcode": "5697",
    "address": "Bērzu iela 2, Porečje, Bērziņu pag., Krāslavas nov., LV-5697",
    "lat": "56.093687041",
    "long": "27.8746227811"
  },
  {
    "id": "508",
    "postcode": "5701",
    "label": "Ludzas 1.pasta nodaļa",
    "working_monday": "8:00-18:00",
    "working_tuesday": "8:00-18:00",
    "working_wednesday": "8:00-18:00",
    "working_thursday": "8:00-18:00",
    "working_friday": "8:00-18:00",
    "working_saturday": "9:00-13:00",
    "working_sunday": "-",
    "phone": "67008001; 27008001",
    "inout": "1",
    "region": "Ludzas raj.",
    "city": "Ludza",
    "area": "Ludzas nov.",
    "district": null,
    "village": null,
    "street": "Raiņa iela",
    "house": "25",
    "zipcode": "5701",
    "address": "Raiņa iela 25, Ludza, Ludzas nov., LV-5701",
    "lat": "56.5441980831",
    "long": "27.7194188501"
  },
  {
    "id": "510",
    "postcode": "5709",
    "label": "Ciblas pasta nodaļa",
    "working_monday": "07:30 - 11:30",
    "working_tuesday": "07:30 - 11:30",
    "working_wednesday": "07:30 - 11:30",
    "working_thursday": "07:30 - 11:30",
    "working_friday": "07:30 - 11:30",
    "working_saturday": "-",
    "working_sunday": "-",
    "phone": "67008001; 27008001",
    "inout": "0",
    "region": "Ludzas raj.",
    "city": null,
    "area": "Ludzas nov.",
    "district": "Ciblas pag.",
    "village": "Cibla",
    "street": "Muižas iela",
    "house": "3",
    "zipcode": "5709",
    "address": "Muižas iela 3, Cibla, Ciblas pag., Ludzas nov., LV-5709",
    "lat": "56.5485493825",
    "long": "27.8823974695"
  },
  {
    "id": "514",
    "postcode": "5674",
    "label": "Dagdas pasta nodaļa",
    "working_monday": "7:30-15:30",
    "working_tuesday": "7:30-15:30",
    "working_wednesday": "7:30-15:30",
    "working_thursday": "7:30-15:30",
    "working_friday": "7:30-15:30",
    "working_saturday": "-",
    "working_sunday": "-",
    "phone": "67008001; 27008001",
    "inout": "0",
    "region": "Krāslavas raj.",
    "city": "Dagda",
    "area": "Krāslavas nov.",
    "district": null,
    "village": null,
    "street": "Alejas iela",
    "house": "16B",
    "zipcode": "5674",
    "address": "Alejas iela 16B, Dagda, Krāslavas nov., LV-5674",
    "lat": "56.0960533672",
    "long": "27.5341514919"
  },
  {
    "id": "517",
    "postcode": "5726",
    "label": "Mērdzenes pasta nodaļa",
    "working_monday": "08:00-12:00",
    "working_tuesday": "08:00-12:00",
    "working_wednesday": "08:00-12:00",
    "working_thursday": "08:00-12:00",
    "working_friday": "08:00-12:00",
    "working_saturday": "-",
    "working_sunday": "-",
    "phone": "Pasta pakalpojumi pēc pieprasījuma 27892757; 67008001; 27008001",
    "inout": "0",
    "region": "Ludzas raj.",
    "city": null,
    "area": "Ludzas nov.",
    "district": "Mērdzenes pag.",
    "village": "Mērdzene",
    "street": "Liepu iela",
    "house": "15",
    "zipcode": "5726",
    "address": "Liepu iela 15, Mērdzene, Mērdzenes pag., Ludzas nov., LV-5726",
    "lat": "56.6849168907",
    "long": "27.7489092133"
  },
  {
    "id": "526",
    "postcode": "5062",
    "label": "Ķeipenes pasta nodaļa",
    "working_monday": "8:00-12:30",
    "working_tuesday": "8:00-12:30",
    "working_wednesday": "8:00-12:30",
    "working_thursday": "8:00-12:30",
    "working_friday": "8:00-12:30",
    "working_saturday": "-",
    "working_sunday": "-",
    "phone": "67008001",
    "inout": "0",
    "region": "Ogres raj.",
    "city": null,
    "area": "Ogres nov.",
    "district": "Ķeipenes pag.",
    "village": "Ķeipene",
    "street": null,
    "house": "Krustiņi",
    "zipcode": "5062",
    "address": "\"Krustiņi\", Ķeipene, Ķeipenes pag., Ogres nov., LV-5062",
    "lat": "56.8940497212",
    "long": "25.1810077309"
  },
  {
    "id": "528",
    "postcode": "3284",
    "label": "Mērsraga pasta nodaļa",
    "working_monday": "8:00 - 13:00",
    "working_tuesday": "8:00 - 13:00",
    "working_wednesday": "8:00 - 13:00",
    "working_thursday": "8:00 - 13:00",
    "working_friday": "8:00 - 13:00",
    "working_saturday": "-",
    "working_sunday": "-",
    "phone": "67008001;27008001",
    "inout": "0",
    "region": "Talsu raj.",
    "city": null,
    "area": "Talsu nov.",
    "district": "Mērsraga pag.",
    "village": "Mērsrags",
    "street": "Dzintaru iela",
    "house": "1",
    "zipcode": "3284",
    "address": "Dzintaru iela 1 - 54, Mērsrags, Mērsraga pag., Talsu nov., LV-3284",
    "lat": "57.3379624461",
    "long": "23.1214164544"
  },
  {
    "id": "529",
    "postcode": "3294",
    "label": "Sabiles pasta nodaļa",
    "working_monday": "7:00 - 12:00",
    "working_tuesday": "7:00 - 12:00",
    "working_wednesday": "7:00 - 12:00",
    "working_thursday": "7:00 - 12:00",
    "working_friday": "7:00 - 12:00",
    "working_saturday": "-",
    "working_sunday": "-",
    "phone": "67008001;27008001",
    "inout": "0",
    "region": "Talsu raj.",
    "city": "Sabile",
    "area": "Talsu nov.",
    "district": null,
    "village": null,
    "street": "Rīgas iela",
    "house": "12",
    "zipcode": "3294",
    "address": "Rīgas iela 12, Sabile, Talsu nov., LV-3294",
    "lat": "57.0443565874",
    "long": "22.5743740438"
  },
  {
    "id": "533",
    "postcode": "3301",
    "label": "Kuldīgas 1.pasta nodaļa",
    "working_monday": "08:00-18:00",
    "working_tuesday": "08:00-18:00",
    "working_wednesday": "08:00-18:00",
    "working_thursday": "08:00-18:00",
    "working_friday": "08:00-18:00",
    "working_saturday": "9:00-12:00",
    "working_sunday": "-",
    "phone": "+37167008001;27008001",
    "inout": "1",
    "region": "Kuldīgas raj.",
    "city": "Kuldīga",
    "area": "Kuldīgas nov.",
    "district": null,
    "village": null,
    "street": "Liepājas iela",
    "house": "34",
    "zipcode": "3301",
    "address": "Liepājas iela 34, Kuldīga, Kuldīgas nov., LV-3301",
    "lat": "56.9683316184",
    "long": "21.9629626322"
  },
  {
    "id": "536",
    "postcode": "4033",
    "label": "Salacgrīvas pasta nodaļa",
    "working_monday": "8:00 - 17:30",
    "working_tuesday": "8:00 - 17:30",
    "working_wednesday": "8:00 - 17:30",
    "working_thursday": "8:00 - 17:30",
    "working_friday": "8:00 - 17:30",
    "working_saturday": "-",
    "working_sunday": "-",
    "phone": "67008001",
    "inout": "0",
    "region": "Limbažu raj.",
    "city": "Salacgrīva",
    "area": "Limbažu nov.",
    "district": null,
    "village": null,
    "street": "Rīgas iela",
    "house": "2",
    "zipcode": "4033",
    "address": "Rīgas iela 2, Salacgrīva, Limbažu nov., LV-4033",
    "lat": "57.7543823087",
    "long": "24.356022872"
  },
  {
    "id": "537",
    "postcode": "5070",
    "label": "Lielvārdes pasta nodaļa",
    "working_monday": "7:00-18:00",
    "working_tuesday": "7:00-18:00",
    "working_wednesday": "7:00-18:00",
    "working_thursday": "7:00-18:00",
    "working_friday": "7:00-18:00",
    "working_saturday": "-",
    "working_sunday": "-",
    "phone": "67008001",
    "inout": "1",
    "region": "Ogres raj.",
    "city": "Lielvārde",
    "area": "Ogres nov.",
    "district": null,
    "village": null,
    "street": "Lāčplēša iela",
    "house": "18A",
    "zipcode": "5070",
    "address": "Lāčplēša iela 18A, Lielvārde, Ogres nov., LV-5070",
    "lat": "56.7175641762",
    "long": "24.8096273044"
  },
  {
    "id": "538",
    "postcode": "2123",
    "label": "Ķekavas pasta nodaļa",
    "working_monday": "8:00-17:00",
    "working_tuesday": "8:00-17:00",
    "working_wednesday": "8:00-17:00",
    "working_thursday": "8:00-19:00",
    "working_friday": "8:00-15:00",
    "working_saturday": "-",
    "working_sunday": "-",
    "phone": "67008001",
    "inout": "1",
    "region": "Rīgas raj.",
    "city": null,
    "area": "Ķekavas nov.",
    "district": "Ķekavas pag.",
    "village": "Ķekava",
    "street": "Gaismas iela",
    "house": "17A",
    "zipcode": "2123",
    "address": "Gaismas iela 17A, Ķekava, Ķekavas pag., Ķekavas nov., LV-2123",
    "lat": "56.8242718742",
    "long": "24.2301185168"
  },
  {
    "id": "539",
    "postcode": "4412",
    "label": "Lejasciema pasta nodaļa",
    "working_monday": "7:30-11:00; 11:30-14:00",
    "working_tuesday": "7:30-11:00; 11:30-14:00",
    "working_wednesday": "7:30-11:00; 11:30-14:00",
    "working_thursday": "7:30-11:00; 11:30-14:00",
    "working_friday": "7:30-11:00; 11:30-13:30",
    "working_saturday": "-",
    "working_sunday": "-",
    "phone": "67008001; 27008001",
    "inout": "0",
    "region": "Gulbenes raj.",
    "city": null,
    "area": "Gulbenes nov.",
    "district": "Lejasciema pag.",
    "village": "Lejasciems",
    "street": "Annas Sakses iela",
    "house": "2",
    "zipcode": "4412",
    "address": "Annas Sakses iela 2, Lejasciems, Lejasciema pag., Gulbenes nov., LV-4412",
    "lat": "57.2782433341",
    "long": "26.5760414137"
  },
  {
    "id": "541",
    "postcode": "4860",
    "label": "Jaunkalsnavas pasta nodaļa",
    "working_monday": "7:30-11:30-12:00-14:00",
    "working_tuesday": "7:30-11:30-12:00-14:00",
    "working_wednesday": "7:30-11:30-12:00-14:00",
    "working_thursday": "7:30-11:30-12:00-14:00",
    "working_friday": "7:30-11:30-12:00-14:00",
    "working_saturday": "-",
    "working_sunday": "-",
    "phone": "67008001; 27008001",
    "inout": "0",
    "region": "Madonas raj.",
    "city": null,
    "area": "Madonas nov.",
    "district": "Kalsnavas pag.",
    "village": "Jaunkalsnava",
    "street": "Vesetas iela",
    "house": "4",
    "zipcode": "4860",
    "address": "Vesetas iela 4, Jaunkalsnava, Kalsnavas pag., Madonas nov., LV-4860",
    "lat": "56.6867822426",
    "long": "25.9700882668"
  },
  {
    "id": "542",
    "postcode": "4865",
    "label": "Mētrienas pasta nodaļa",
    "working_monday": "8:00-11:30",
    "working_tuesday": "8:00-11:30",
    "working_wednesday": "8:00-11:30",
    "working_thursday": "8:00-11:30",
    "working_friday": "8:00-11:30",
    "working_saturday": "-",
    "working_sunday": "-",
    "phone": "67008001; 27008001",
    "inout": "0",
    "region": "Madonas raj.",
    "city": null,
    "area": "Madonas nov.",
    "district": "Mētrienas pag.",
    "village": "Mētriena",
    "street": "Mētru iela",
    "house": "1",
    "zipcode": "4865",
    "address": "Mētru iela 1, Mētriena, Mētrienas pag., Madonas nov., LV-4865",
    "lat": "56.6743685682",
    "long": "26.3182532386"
  },
  {
    "id": "544",
    "postcode": "5133",
    "label": "Ērberģes pasta nodaļa",
    "working_monday": "8:00-12:30",
    "working_tuesday": "8:00-12:30",
    "working_wednesday": "8:00-12:30",
    "working_thursday": "8:00-12:30",
    "working_friday": "8:00-12:30",
    "working_saturday": "-",
    "working_sunday": "-",
    "phone": "67008001",
    "inout": "0",
    "region": "Aizkraukles raj.",
    "city": null,
    "area": "Aizkraukles nov.",
    "district": "Mazzalves pag.",
    "village": "Ērberģe",
    "street": "Liepu iela",
    "house": "2",
    "zipcode": "5133",
    "address": "Liepu iela 2, Ērberģe, Mazzalves pag., Aizkraukles nov., LV-5133",
    "lat": "56.3690388888",
    "long": "25.018208166"
  },
  {
    "id": "545",
    "postcode": "4834",
    "label": "Barkavas pasta nodaļa",
    "working_monday": "13:00-16:30",
    "working_tuesday": "13:00-16:30",
    "working_wednesday": "13:00-16:30",
    "working_thursday": "13:00-16:30",
    "working_friday": "13:00-15:30; 16:00-18:00",
    "working_saturday": "-",
    "working_sunday": "-",
    "phone": "67008001; 27008001",
    "inout": "0",
    "region": "Madonas raj.",
    "city": null,
    "area": "Madonas nov.",
    "district": "Barkavas pag.",
    "village": "Barkava",
    "street": "Brīvības iela",
    "house": "9",
    "zipcode": "4834",
    "address": "Brīvības iela 9, Barkava, Barkavas pag., Madonas nov., LV-4834",
    "lat": "56.7263380655",
    "long": "26.6086834771"
  },
  {
    "id": "546",
    "postcode": "4830",
    "label": "Lubānas pasta nodaļa",
    "working_monday": "8:00-13:30",
    "working_tuesday": "8:00-12:30; 13:00-15:30",
    "working_wednesday": "8:00-12:30; 13:00-15:30",
    "working_thursday": "8:00-12:30; 13:00-15:30",
    "working_friday": "8:00-12:30; 13:00-15:30",
    "working_saturday": "-",
    "working_sunday": "-",
    "phone": "67008001; 27008001",
    "inout": "0",
    "region": "Madonas raj.",
    "city": "Lubāna",
    "area": "Madonas nov.",
    "district": null,
    "village": null,
    "street": "Oskara Kalpaka iela",
    "house": "5",
    "zipcode": "4830",
    "address": "Oskara Kalpaka iela 5, Lubāna, Madonas nov., LV-4830",
    "lat": "56.9019210303",
    "long": "26.7219423109"
  },
  {
    "id": "547",
    "postcode": "1001",
    "label": "Rīgas 1.pasta nodaļa",
    "working_monday": "8:00-19:00",
    "working_tuesday": "8:00-19:00",
    "working_wednesday": "8:00-19:00",
    "working_thursday": "8:00-19:00",
    "working_friday": "8:00-19:00",
    "working_saturday": "-",
    "working_sunday": "-",
    "phone": "67008001",
    "inout": "1",
    "region": null,
    "city": "Rīga",
    "area": null,
    "district": null,
    "village": null,
    "street": "Miera iela",
    "house": "44",
    "zipcode": "1001",
    "address": "Miera iela 44, Rīga, LV-1001",
    "lat": "56.9647933725",
    "long": "24.1332019624"
  },
  {
    "id": "548",
    "postcode": "1002",
    "label": "Rīgas 2.pasta nodaļa",
    "working_monday": "8:00-19:00",
    "working_tuesday": "8:00-19:00",
    "working_wednesday": "8:00-19:00 ",
    "working_thursday": "8:00-19:00 ",
    "working_friday": "8:00-19:00 ",
    "working_saturday": "-",
    "working_sunday": "-",
    "phone": "67008001",
    "inout": "1",
    "region": null,
    "city": "Rīga",
    "area": null,
    "district": null,
    "village": null,
    "street": "Mārupes iela",
    "house": "6",
    "zipcode": "1002",
    "address": "Mārupes iela 6, Rīga, LV-1002",
    "lat": "56.9344684292",
    "long": "24.0714257685"
  },
  {
    "id": "549",
    "postcode": "1005",
    "label": "Rīgas 5.pasta nodaļa",
    "working_monday": "8:00-19:00",
    "working_tuesday": "8:00-19:00",
    "working_wednesday": "8:00-19:00",
    "working_thursday": "8:00-19:00",
    "working_friday": "8:00-19:00",
    "working_saturday": "-",
    "working_sunday": "-",
    "phone": "67008001",
    "inout": "1",
    "region": null,
    "city": "Rīga",
    "area": null,
    "district": null,
    "village": null,
    "street": "Tilta iela",
    "house": "11 k-3",
    "zipcode": "1005",
    "address": "Tilta iela 11 k-3, Rīga, LV-1005",
    "lat": "56.996091168",
    "long": "24.1291844491"
  },
  {
    "id": "551",
    "postcode": "3257",
    "label": "Stendes pasta nodaļa",
    "working_monday": "7:00 - 12:00",
    "working_tuesday": "7:00 - 12:00",
    "working_wednesday": "7:00 - 12:00  ",
    "working_thursday": "7:00 - 12:00",
    "working_friday": "7:00 - 12:00",
    "working_saturday": "-",
    "working_sunday": "-",
    "phone": "67008001;27008001",
    "inout": "0",
    "region": "Talsu raj.",
    "city": "Stende",
    "area": "Talsu nov.",
    "district": null,
    "village": null,
    "street": "Brīvības iela",
    "house": "10",
    "zipcode": "3257",
    "address": "Brīvības iela 10, Stende, Talsu nov., LV-3257",
    "lat": "57.1479342632",
    "long": "22.5357560248"
  },
  {
    "id": "552",
    "postcode": "2136",
    "label": "Vangažu pasta nodaļa",
    "working_monday": "10:00-18:00",
    "working_tuesday": "7:00-15:00",
    "working_wednesday": "7:00-15:00",
    "working_thursday": "10:00-18:00",
    "working_friday": "7:00-15:00",
    "working_saturday": "-",
    "working_sunday": "-",
    "phone": "67008001",
    "inout": "0",
    "region": "Rīgas raj.",
    "city": "Vangaži",
    "area": "Ropažu nov.",
    "district": null,
    "village": null,
    "street": "Gaujas iela",
    "house": "18",
    "zipcode": "2136",
    "address": "Gaujas iela 18, Vangaži, Ropažu nov., LV-2136",
    "lat": "57.0932519506",
    "long": "24.5449897447"
  },
  {
    "id": "553",
    "postcode": "3018",
    "label": "Ozolnieku pasta nodaļa",
    "working_monday": "8:00-19:00",
    "working_tuesday": "8:00-19:00",
    "working_wednesday": "8:00-19:00",
    "working_thursday": "8:00-19:00",
    "working_friday": "8:00-19:00",
    "working_saturday": "-",
    "working_sunday": "-",
    "phone": "67008001",
    "inout": "0",
    "region": "Jelgavas raj.",
    "city": null,
    "area": "Jelgavas nov.",
    "district": "Ozolnieku pag.",
    "village": "Ozolnieki",
    "street": "Skolas iela",
    "house": "1B",
    "zipcode": "3018",
    "address": "Skolas iela 1B, Ozolnieki, Ozolnieku pag., Jelgavas nov., LV-3018",
    "lat": "56.6919901064",
    "long": "23.7877162215"
  },
  {
    "id": "557",
    "postcode": "3453",
    "label": "Cīravas pasta nodaļa",
    "working_monday": "7:00-12:00",
    "working_tuesday": "7:00-12:00",
    "working_wednesday": "7:00-12:00",
    "working_thursday": "7:00-12:00",
    "working_friday": "7:00-12:00",
    "working_saturday": "-",
    "working_sunday": "-",
    "phone": "67008001;27008001",
    "inout": "0",
    "region": "Liepājas raj.",
    "city": null,
    "area": "Dienvidkurzemes nov.",
    "district": "Cīravas pag.",
    "village": "Cīrava",
    "street": null,
    "house": "Ezeriņi",
    "zipcode": "3453",
    "address": "\"Ezeriņi\", Cīrava, Cīravas pag., Dienvidkurzemes nov., LV-3453",
    "lat": "56.736671244",
    "long": "21.3847649363"
  },
  {
    "id": "559",
    "postcode": "3901",
    "label": "Pasta centrs Bauska",
    "working_monday": "8:00-18:00",
    "working_tuesday": "8:00-18:00",
    "working_wednesday": "8:00-18:00",
    "working_thursday": "8:00-18:00",
    "working_friday": "8:00-18:00",
    "working_saturday": "8:00-13:00",
    "working_sunday": "-",
    "phone": "67008001",
    "inout": "1",
    "region": "Bauskas raj.",
    "city": "Bauska",
    "area": "Bauskas nov.",
    "district": null,
    "village": null,
    "street": "Slimnīcas iela",
    "house": "9A",
    "zipcode": "3901",
    "address": "Slimnīcas iela 9A, Bauska, Bauskas nov., LV-3901",
    "lat": "56.4077141253",
    "long": "24.196935391"
  },
  {
    "id": "560",
    "postcode": "4035",
    "label": "Ainažu pasta nodaļa",
    "working_monday": "8:30-12:00; 12:30 -16:00",
    "working_tuesday": "8:30-12:00; 12:30 -16:00",
    "working_wednesday": "8:30-12:00; 12:30 -16:00",
    "working_thursday": "8:30-12:00; 12:30 -16:00",
    "working_friday": "8:30-12:00; 12:30 -16:00",
    "working_saturday": "-",
    "working_sunday": "-",
    "phone": "67008001; 27008001",
    "inout": "0",
    "region": "Limbažu raj.",
    "city": "Ainaži",
    "area": "Limbažu nov.",
    "district": null,
    "village": null,
    "street": "Valdemāra iela",
    "house": "42",
    "zipcode": "4035",
    "address": "Valdemāra iela 42, Ainaži, Limbažu nov., LV-4035",
    "lat": "57.8632883716",
    "long": "24.3581408986"
  },
  {
    "id": "561",
    "postcode": "4043",
    "label": "Staiceles pasta nodaļa",
    "working_monday": "8:00-15:30",
    "working_tuesday": "8:00-15:30",
    "working_wednesday": "8:00-15:30",
    "working_thursday": "8:00-15:30",
    "working_friday": "8:00-15:30",
    "working_saturday": "-",
    "working_sunday": "-",
    "phone": "Pasta pakalpojumi pēc pieprasījuma 67008001;27008001;23281110;23281111",
    "inout": "0",
    "region": "Limbažu raj.",
    "city": "Staicele",
    "area": "Limbažu nov.",
    "district": null,
    "village": null,
    "street": "Lielā iela",
    "house": "7",
    "zipcode": "4043",
    "address": "Lielā iela 7, Staicele, Limbažu nov., LV-4043",
    "lat": "57.83626225",
    "long": "24.7465144128"
  },
  {
    "id": "562",
    "postcode": "4152",
    "label": "Straupes pasta nodaļa",
    "working_monday": "8:30-13:00",
    "working_tuesday": "8:30-13:00",
    "working_wednesday": "8:30-13:00",
    "working_thursday": "8:30-13:00",
    "working_friday": "8:30-13:00",
    "working_saturday": "-",
    "working_sunday": "-",
    "phone": "67008001; 27008001",
    "inout": "0",
    "region": "Cēsu raj.",
    "city": null,
    "area": "Cēsu nov.",
    "district": "Straupes pag.",
    "village": "Straupe",
    "street": "Braslas iela",
    "house": "1",
    "zipcode": "4152",
    "address": "Braslas iela 1, Straupe, Straupes pag., Cēsu nov., LV-4152",
    "lat": "57.3554396448",
    "long": "24.9510785009"
  },
  {
    "id": "563",
    "postcode": "4201",
    "label": "Valmieras 1.pasta nodaļa",
    "working_monday": "7:00 - 18:00",
    "working_tuesday": "7:00 - 18:00",
    "working_wednesday": "7:00 - 18:00",
    "working_thursday": "7:00 - 18:00",
    "working_friday": "7:00 - 18:00",
    "working_saturday": "9:00-13:00",
    "working_sunday": "-",
    "phone": "67008001; 27008001",
    "inout": "1",
    "region": "Valmieras raj.",
    "city": "Valmiera",
    "area": "Valmieras nov.",
    "district": null,
    "village": null,
    "street": "Rīgas iela",
    "house": "34",
    "zipcode": "4201",
    "address": "Rīgas iela 34, Valmiera, Valmieras nov., LV-4201",
    "lat": "57.5376044696",
    "long": "25.4129448611"
  },
  {
    "id": "564",
    "postcode": "4337",
    "label": "Apes pasta nodaļa",
    "working_monday": "8:00 - 11:30",
    "working_tuesday": "8:00 - 11:30",
    "working_wednesday": "8:00 - 11:30  14:00-18:00",
    "working_thursday": "8:00 - 11:30",
    "working_friday": "8:00 - 11:30",
    "working_saturday": "-",
    "working_sunday": "-",
    "phone": "67008001; 27008001",
    "inout": "0",
    "region": "Valkas raj.",
    "city": "Ape",
    "area": "Smiltenes nov.",
    "district": null,
    "village": null,
    "street": "Stacijas iela",
    "house": "7",
    "zipcode": "4337",
    "address": "Stacijas iela 7, Ape, Smiltenes nov., LV-4337",
    "lat": "57.5389933535",
    "long": "26.6949501437"
  },
  {
    "id": "565",
    "postcode": "4576",
    "label": "Bērzpils pasta nodaļa",
    "working_monday": "8:30-13:00",
    "working_tuesday": "8:30-13:00",
    "working_wednesday": "8:30-13:00",
    "working_thursday": "8:30-13:00",
    "working_friday": "8:30-13:00",
    "working_saturday": "-",
    "working_sunday": "-",
    "phone": "67008001; 27008001",
    "inout": "0",
    "region": "Balvu raj.",
    "city": null,
    "area": "Balvu nov.",
    "district": "Bērzpils pag.",
    "village": "Bērzpils",
    "street": "Dārza iela",
    "house": "27",
    "zipcode": "4576",
    "address": "Dārza iela 27, Bērzpils, Bērzpils pag., Balvu nov., LV-4576",
    "lat": "56.8476571102",
    "long": "27.0848519666"
  },
  {
    "id": "571",
    "postcode": "4801",
    "label": "Madonas 1.pasta nodaļa",
    "working_monday": "8:00-18:00",
    "working_tuesday": "8:00-18:00",
    "working_wednesday": "8:00-18:00",
    "working_thursday": "8:00-18:00",
    "working_friday": "8:00-18:00",
    "working_saturday": " 9:00-13:00",
    "working_sunday": "-",
    "phone": "67008001; 27008001",
    "inout": "1",
    "region": "Madonas raj.",
    "city": "Madona",
    "area": "Madonas nov.",
    "district": null,
    "village": null,
    "street": "Saules iela",
    "house": "21",
    "zipcode": "4801",
    "address": "Saules iela 21, Madona, Madonas nov., LV-4801",
    "lat": "56.8531931584",
    "long": "26.2223551538"
  },
  {
    "id": "574",
    "postcode": "1013",
    "label": "Rīgas 13.pasta nodaļa",
    "working_monday": "8:00-19:00",
    "working_tuesday": "8:00-19:00",
    "working_wednesday": "8:00-19:00",
    "working_thursday": "8:00-19:00",
    "working_friday": "8:00-19:00",
    "working_saturday": "-",
    "working_sunday": "-",
    "phone": "67008001",
    "inout": "1",
    "region": null,
    "city": "Rīga",
    "area": null,
    "district": null,
    "village": null,
    "street": "Krišjāņa Valdemāra iela",
    "house": "145 k-1",
    "zipcode": "1013",
    "address": "Krišjāņa Valdemāra iela 145 k-1, Rīga, LV-1013",
    "lat": "56.9710494046",
    "long": "24.1331096899"
  },
  {
    "id": "575",
    "postcode": "1014",
    "label": "Rīgas 14.pasta nodaļa",
    "working_monday": "8:00-19:00",
    "working_tuesday": "8:00-19:00",
    "working_wednesday": "8:00-19:00",
    "working_thursday": "8:00-19:00",
    "working_friday": "8:00-19:00",
    "working_saturday": "-",
    "working_sunday": "-",
    "phone": "67008001",
    "inout": "1",
    "region": null,
    "city": "Rīga",
    "area": null,
    "district": null,
    "village": null,
    "street": "Kokneses prospekts",
    "house": "15",
    "zipcode": "1014",
    "address": "Kokneses prospekts 15, Rīga, LV-1014",
    "lat": "57.0006777094",
    "long": "24.1592059909"
  },
  {
    "id": "576",
    "postcode": "1015",
    "label": "Rīgas 15.pasta nodaļa",
    "working_monday": "8:00-19:00",
    "working_tuesday": "8:00-19:00",
    "working_wednesday": "8:00-19:00",
    "working_thursday": "8:00-19:00 ",
    "working_friday": "8:00-19:00",
    "working_saturday": "-",
    "working_sunday": "-",
    "phone": "67008001",
    "inout": "1",
    "region": null,
    "city": "Rīga",
    "area": null,
    "district": null,
    "village": null,
    "street": "Augusta Dombrovska iela",
    "house": "34",
    "zipcode": "1015",
    "address": "Augusta Dombrovska iela 34, Rīga, LV-1015",
    "lat": "57.0325711387",
    "long": "24.1087333363"
  },
  {
    "id": "577",
    "postcode": "1016",
    "label": "Rīgas 16.pasta nodaļa",
    "working_monday": "8:00-19:00",
    "working_tuesday": "8:00-19:00",
    "working_wednesday": "8:00-19:00",
    "working_thursday": "8:00-19:00",
    "working_friday": "8:00-19:00",
    "working_saturday": "-",
    "working_sunday": "-",
    "phone": "67008001",
    "inout": "1",
    "region": null,
    "city": "Rīga",
    "area": null,
    "district": null,
    "village": null,
    "street": "Stūrmaņu iela",
    "house": "25",
    "zipcode": "1016",
    "address": "Stūrmaņu iela 25, Rīga, LV-1016",
    "lat": "57.0333978061",
    "long": "24.0502619188"
  },
  {
    "id": "579",
    "postcode": "5226",
    "label": "Mežāres pasta nodaļa",
    "working_monday": "8:00-11:30",
    "working_tuesday": "8:00-11:30",
    "working_wednesday": "8:00-11:30",
    "working_thursday": "8:00-11:30",
    "working_friday": "8:00-11:30",
    "working_saturday": "-",
    "working_sunday": "-",
    "phone": "67008001",
    "inout": "0",
    "region": "Jēkabpils raj.",
    "city": null,
    "area": "Jēkabpils nov.",
    "district": "Mežāres pag.",
    "village": "Mežāre",
    "street": null,
    "house": "Centrs",
    "zipcode": "5226",
    "address": "\"Centrs\", Mežāre, Mežāres pag., Jēkabpils nov., LV-5226",
    "lat": "56.540179969",
    "long": "26.2474502879"
  },
  {
    "id": "582",
    "postcode": "2011",
    "label": "Slokas pasta nodaļa",
    "working_monday": "9:00-19:00",
    "working_tuesday": "9:00-19:00",
    "working_wednesday": "9:00-19:00",
    "working_thursday": "9:00-19:00",
    "working_friday": "9:00-19:00",
    "working_saturday": "-",
    "working_sunday": "-",
    "phone": "67008001",
    "inout": "1",
    "region": null,
    "city": "Jūrmala",
    "area": null,
    "district": null,
    "village": null,
    "street": "Hercoga Jēkaba iela",
    "house": "7 k-3",
    "zipcode": "2011",
    "address": "Hercoga Jēkaba iela 7 k-3, Jūrmala, LV-2011",
    "lat": "56.9463718109",
    "long": "23.6169352355"
  },
  {
    "id": "584",
    "postcode": "1084",
    "label": "Rīgas 84.pasta nodaļa",
    "working_monday": "8:00-20:00  ",
    "working_tuesday": "8:00-20:00   ",
    "working_wednesday": "8:00-20:00  ",
    "working_thursday": "8:00-20:00  ",
    "working_friday": "8:00-20:00  ",
    "working_saturday": "-",
    "working_sunday": "-",
    "phone": "67008001",
    "inout": "1",
    "region": null,
    "city": "Rīga",
    "area": null,
    "district": null,
    "village": null,
    "street": "Vaidavas iela",
    "house": "1A",
    "zipcode": "1084",
    "address": "Vaidavas iela 1A, Rīga, LV-1084",
    "lat": "56.9641348121",
    "long": "24.1771813201"
  },
  {
    "id": "585",
    "postcode": "2164",
    "label": "Ādažu pasta nodaļa",
    "working_monday": "8:00-18:00",
    "working_tuesday": "8:00-16:00",
    "working_wednesday": "8:00-16:00",
    "working_thursday": "8:00-18:00",
    "working_friday": "8:00-16:00",
    "working_saturday": "-",
    "working_sunday": "-",
    "phone": "67008001",
    "inout": "1",
    "region": "Rīgas raj.",
    "city": null,
    "area": "Ādažu nov.",
    "district": "Ādažu pag.",
    "village": "Ādaži",
    "street": "Gaujas iela",
    "house": "11",
    "zipcode": "2164",
    "address": "Gaujas iela 11, Ādaži, Ādažu pag., Ādažu nov., LV-2164",
    "lat": "57.0774369962",
    "long": "24.3238593662"
  },
  {
    "id": "588",
    "postcode": "5717",
    "label": "Kārsavas pasta nodaļa",
    "working_monday": "8:00-17:00",
    "working_tuesday": "8:00-17:00",
    "working_wednesday": "8:00-17:00",
    "working_thursday": "8:00-17:00",
    "working_friday": "8:00-17:00",
    "working_saturday": "-",
    "working_sunday": "-",
    "phone": "67008001; 27008001",
    "inout": "0",
    "region": "Ludzas raj.",
    "city": "Kārsava",
    "area": "Ludzas nov.",
    "district": null,
    "village": null,
    "street": "Vienības iela",
    "house": "53",
    "zipcode": "5717",
    "address": "Vienības iela 53, Kārsava, Ludzas nov., LV-5717",
    "lat": "56.7870198402",
    "long": "27.67520236"
  },
  {
    "id": "589",
    "postcode": "3113",
    "label": "Engures pasta nodaļa",
    "working_monday": "7:00 - 12:00",
    "working_tuesday": "7:00 - 12:00",
    "working_wednesday": "7:00 - 12:00",
    "working_thursday": "7:00 - 12:00",
    "working_friday": "7:00 - 12:00",
    "working_saturday": "-",
    "working_sunday": "-",
    "phone": "67008001;27008001",
    "inout": "0",
    "region": "Tukuma raj.",
    "city": null,
    "area": "Tukuma nov.",
    "district": "Engures pag.",
    "village": "Engure",
    "street": "Jūras iela",
    "house": "62",
    "zipcode": "3113",
    "address": "Jūras iela 62, Engure, Engures pag., Tukuma nov., LV-3113",
    "lat": "57.1627190607",
    "long": "23.2284811543"
  },
  {
    "id": "591",
    "postcode": "3306",
    "label": "Alsungas pasta nodaļa",
    "working_monday": "7:00 - 14:00",
    "working_tuesday": "7:00 - 14:00",
    "working_wednesday": "7:00 - 14:00",
    "working_thursday": "7:00 - 14:00",
    "working_friday": "7:00 - 14:00",
    "working_saturday": "-",
    "working_sunday": "-",
    "phone": "67008001;27008001",
    "inout": "0",
    "region": "Kuldīgas raj.",
    "city": null,
    "area": "Kuldīgas nov.",
    "district": "Alsungas pag.",
    "village": "Alsunga",
    "street": "Raiņa iela",
    "house": "2",
    "zipcode": "3306",
    "address": "Raiņa iela 2, Alsunga, Alsungas pag., Kuldīgas nov., LV-3306",
    "lat": "56.9819460462",
    "long": "21.5652586687"
  },
  {
    "id": "592",
    "postcode": "3851",
    "label": "Brocēnu pasta nodaļa",
    "working_monday": "7:00-14:00",
    "working_tuesday": "7:00-14:00",
    "working_wednesday": "7:00-14:00",
    "working_thursday": "7:00-14:00",
    "working_friday": "7:00-14:00",
    "working_saturday": "-",
    "working_sunday": "-",
    "phone": "67008001;27008001",
    "inout": "0",
    "region": "Saldus raj.",
    "city": "Brocēni",
    "area": "Saldus nov.",
    "district": null,
    "village": null,
    "street": "Lielcieceres iela",
    "house": "6B",
    "zipcode": "3851",
    "address": "Lielcieceres iela 6B, Brocēni, Saldus nov., LV-3851",
    "lat": "56.6808614963",
    "long": "22.5665100636"
  },
  {
    "id": "593",
    "postcode": "3475",
    "label": "Rudes pasta nodaļa",
    "working_monday": "8:30 -11:30",
    "working_tuesday": "8:30 -12:30",
    "working_wednesday": "8:30 -12:30",
    "working_thursday": "8:30 -12:30",
    "working_friday": "8:30 -12:30",
    "working_saturday": "-",
    "working_sunday": "-",
    "phone": "67008001;27008001",
    "inout": "0",
    "region": "Liepājas raj.",
    "city": null,
    "area": "Dienvidkurzemes nov.",
    "district": "Otaņķu pag.",
    "village": "Rude",
    "street": null,
    "house": "Pagastmāja",
    "zipcode": "3475",
    "address": "\"Pagastmāja\", Rude, Otaņķu pag., Dienvidkurzemes nov., LV-3475",
    "lat": "56.3747778368",
    "long": "21.0922316576"
  },
  {
    "id": "595",
    "postcode": "5101",
    "label": "Pasta centrs Aizkraukle",
    "working_monday": "8:00-18:00",
    "working_tuesday": "8:00-18:00",
    "working_wednesday": "8:00-18:00",
    "working_thursday": "8:00-18:00",
    "working_friday": "8:00-18:00",
    "working_saturday": "-",
    "working_sunday": "-",
    "phone": "67008001",
    "inout": "1",
    "region": "Aizkraukles raj.",
    "city": "Aizkraukle",
    "area": "Aizkraukles nov.",
    "district": null,
    "village": null,
    "street": "Bērzu iela",
    "house": "1",
    "zipcode": "5101",
    "address": "Bērzu iela 1, Aizkraukle, Aizkraukles nov., LV-5101",
    "lat": "56.601783961",
    "long": "25.2543748629"
  },
  {
    "id": "597",
    "postcode": "4210",
    "label": "Matīšu pasta nodaļa",
    "working_monday": "8:00-12:00; 12:30 - 15:00",
    "working_tuesday": "8:00-12:00; 12:30 - 15:00",
    "working_wednesday": "8:00-12:00; 12:30 - 15:00",
    "working_thursday": "8:00-12:00; 12:30 - 15:00",
    "working_friday": "8:00-12:00; 12:30 - 16:00",
    "working_saturday": "-",
    "working_sunday": "-",
    "phone": "67008001; 27008001",
    "inout": "0",
    "region": "Valmieras raj.",
    "city": null,
    "area": "Valmieras nov.",
    "district": "Matīšu pag.",
    "village": "Matīši",
    "street": "Skolas iela",
    "house": "11",
    "zipcode": "4210",
    "address": "Skolas iela 11, Matīši, Matīšu pag., Valmieras nov., LV-4210",
    "lat": "57.6959372058",
    "long": "25.1580138401"
  },
  {
    "id": "598",
    "postcode": "3890",
    "label": "Kursīšu pasta nodaļa",
    "working_monday": "8:00-13:00",
    "working_tuesday": "8:00-13:00",
    "working_wednesday": "8:00-13:00",
    "working_thursday": "8:00-13:00",
    "working_friday": "8:00-13:00",
    "working_saturday": "-",
    "working_sunday": "-",
    "phone": "67008001;27008001",
    "inout": "0",
    "region": "Saldus raj.",
    "city": null,
    "area": "Saldus nov.",
    "district": "Kursīšu pag.",
    "village": "Kursīši",
    "street": "Kalna iela",
    "house": "7",
    "zipcode": "3890",
    "address": "Kalna iela 7, Kursīši, Kursīšu pag., Saldus nov., LV-3890",
    "lat": "56.5123346686",
    "long": "22.4038996527"
  },
  {
    "id": "601",
    "postcode": "1009",
    "label": "Rīgas 9.pasta nodaļa",
    "working_monday": "8:00-19:00",
    "working_tuesday": "8:00-19:00",
    "working_wednesday": "8:00-19:00",
    "working_thursday": "8:00-19:00",
    "working_friday": "8:00-19:00",
    "working_saturday": "-",
    "working_sunday": "-",
    "phone": "67008001",
    "inout": "1",
    "region": null,
    "city": "Rīga",
    "area": null,
    "district": null,
    "village": null,
    "street": "Pērnavas iela",
    "house": "43",
    "zipcode": "1009",
    "address": "Pērnavas iela 43, Rīga, LV-1009",
    "lat": "56.9547476324",
    "long": "24.1536556085"
  },
  {
    "id": "602",
    "postcode": "1010",
    "label": "Rīgas 10.pasta nodaļa",
    "working_monday": "8:00-20:00",
    "working_tuesday": "8:00-20:00",
    "working_wednesday": "8:00-20:00",
    "working_thursday": "8:00-20:00",
    "working_friday": "8:00-20:00",
    "working_saturday": "-",
    "working_sunday": "-",
    "phone": "67008001",
    "inout": "0",
    "region": null,
    "city": "Rīga",
    "area": null,
    "district": null,
    "village": null,
    "street": "Elizabetes iela",
    "house": "41/43",
    "zipcode": "1010",
    "address": "Elizabetes iela 41/43, Rīga, LV-1010",
    "lat": "56.9573472288",
    "long": "24.1123881421"
  },
  {
    "id": "603",
    "postcode": "1011",
    "label": "Rīgas 11.pasta nodaļa",
    "working_monday": "8:00-19:00",
    "working_tuesday": "8:00-19:00",
    "working_wednesday": "8:00-19:00",
    "working_thursday": "8:00-19:00",
    "working_friday": "8:00-19:00",
    "working_saturday": "-",
    "working_sunday": "-",
    "phone": "67008001",
    "inout": "1",
    "region": null,
    "city": "Rīga",
    "area": null,
    "district": null,
    "village": null,
    "street": "Marijas iela",
    "house": "20",
    "zipcode": "1011",
    "address": "Marijas iela 20, Rīga, LV-1011",
    "lat": "56.9508125429",
    "long": "24.1263029138"
  },
  {
    "id": "607",
    "postcode": "5751",
    "label": "Zilupes pasta nodaļa",
    "working_monday": "8:00-16:00",
    "working_tuesday": "8:00-16:00",
    "working_wednesday": "8:00-16:00",
    "working_thursday": "8:00-16:00",
    "working_friday": "8:00-16:00",
    "working_saturday": "-",
    "working_sunday": "-",
    "phone": "67008001; 27008001",
    "inout": "0",
    "region": "Ludzas raj.",
    "city": "Zilupe",
    "area": "Ludzas nov.",
    "district": null,
    "village": null,
    "street": "Partizāņu iela",
    "house": "5",
    "zipcode": "5751",
    "address": "Partizāņu iela 5, Zilupe, Ludzas nov., LV-5751",
    "lat": "56.3881687661",
    "long": "28.1243022965"
  },
  {
    "id": "608",
    "postcode": "5748",
    "label": "Vecslabadas pasta nodaļa",
    "working_monday": "8:00-12:20",
    "working_tuesday": "8:00-12:20",
    "working_wednesday": "8:00-12:20",
    "working_thursday": "8:00-12:20",
    "working_friday": "8:00-12:20",
    "working_saturday": "-",
    "working_sunday": "-",
    "phone": "67008001; 27008001",
    "inout": "0",
    "region": "Ludzas raj.",
    "city": null,
    "area": "Ludzas nov.",
    "district": "Istras pag.",
    "village": "Vecslabada",
    "street": null,
    "house": "Pagastmāja",
    "zipcode": "5748",
    "address": "\"Pagastmāja\", Vecslabada, Istras pag., Ludzas nov., LV-5748",
    "lat": "56.2567307546",
    "long": "27.9862408095"
  },
  {
    "id": "616",
    "postcode": "4102",
    "label": "Cēsu 2.pasta nodaļa",
    "working_monday": "7:00-18:00",
    "working_tuesday": "7:00-18:00",
    "working_wednesday": "7:00-18:00",
    "working_thursday": "7:00-18:00",
    "working_friday": "7:00-18:00",
    "working_saturday": "9:00-13:00",
    "working_sunday": "-",
    "phone": "67008001; 27008001",
    "inout": "1",
    "region": "Cēsu raj.",
    "city": "Cēsis",
    "area": "Cēsu nov.",
    "district": null,
    "village": null,
    "street": "Stacijas laukums",
    "house": "5, pasta nodaļa",
    "zipcode": "4102",
    "address": "Stacijas laukums 5, pasta nodaļa, Cēsis, Cēsu nov., LV-4102",
    "lat": "57.3130248451",
    "long": "25.2816764298"
  },
  {
    "id": "617",
    "postcode": "1000",
    "label": "Latvijas Pasts",
    "working_monday": "-",
    "working_tuesday": "-",
    "working_wednesday": "-",
    "working_thursday": "-",
    "working_friday": "-",
    "working_saturday": "-",
    "working_sunday": "-",
    "phone": "",
    "inout": "0",
    "region": "Rīgas raj.",
    "city": null,
    "area": "Mārupes nov.",
    "district": "Mārupes pag.",
    "village": null,
    "street": null,
    "house": "Lidosta Rīga 10/2",
    "zipcode": "1053",
    "address": "\"Lidosta Rīga 10/2\", Mārupes pag., Mārupes nov., LV-1053",
    "lat": "56.9159757345",
    "long": "23.9785332009"
  },
  {
    "id": "618",
    "postcode": "2144",
    "label": "Raganas pasta nodaļa",
    "working_monday": "8:00-15:00",
    "working_tuesday": "08:00-15:00",
    "working_wednesday": "8:00-15:00",
    "working_thursday": "08:00-15:00",
    "working_friday": "8:00-15:00",
    "working_saturday": "-",
    "working_sunday": "-",
    "phone": " 67008001",
    "inout": "0",
    "region": "Rīgas raj.",
    "city": null,
    "area": "Siguldas nov.",
    "district": "Krimuldas pag.",
    "village": "Ragana",
    "street": "Tirgus iela",
    "house": "3",
    "zipcode": "2144",
    "address": "Tirgus iela 3, Ragana, Krimuldas pag., Siguldas nov., LV-2144",
    "lat": "57.1802484043",
    "long": "24.7129590063"
  },
  {
    "id": "620",
    "postcode": "5492",
    "label": "Sūtījumu izsniegšanas punkts Piegādes Punktā Daugavpils 2",
    "working_monday": "10:00-20:00",
    "working_tuesday": "10:00-18:00",
    "working_wednesday": "10:00-18:00",
    "working_thursday": "10:00-18:00",
    "working_friday": "10:00-18:00",
    "working_saturday": "-",
    "working_sunday": "-",
    "phone": "67008001; 27008001",
    "inout": "0",
    "region": null,
    "city": "Daugavpils",
    "area": null,
    "district": null,
    "village": null,
    "street": "Aveņu iela",
    "house": "26",
    "zipcode": "5422",
    "address": "Aveņu iela 26, Daugavpils, LV-5422",
    "lat": "55.90121346",
    "long": "26.527424485"
  },
  {
    "id": "622",
    "postcode": "1019",
    "label": "Sūtījumu izsniegšanas punkts Piegādes Punktā Rīga 3, Katoļu iela 31",
    "working_monday": "8:00-19:00",
    "working_tuesday": "8:00-19:00",
    "working_wednesday": "8:00-19:00",
    "working_thursday": "8:00-19:00",
    "working_friday": "8:00-19:00",
    "working_saturday": "-",
    "working_sunday": "-",
    "phone": "67008001",
    "inout": "0",
    "region": null,
    "city": "Rīga",
    "area": null,
    "district": null,
    "village": null,
    "street": "Katoļu iela",
    "house": "31",
    "zipcode": "1003",
    "address": "Katoļu iela 31, Rīga, LV-1003",
    "lat": "56.9434871155",
    "long": "24.1362293064"
  },
  {
    "id": "624",
    "postcode": "3401",
    "label": "Liepājas sūtījumu izsniegšanas punkts",
    "working_monday": "8:00-18:00",
    "working_tuesday": "8:00-18:00",
    "working_wednesday": "8:00-18:00",
    "working_thursday": "8:00-18:00",
    "working_friday": "8:00-18:00",
    "working_saturday": "10:00-14:00",
    "working_sunday": "-",
    "phone": "67008001; 27008001",
    "inout": "1",
    "region": null,
    "city": "Liepāja",
    "area": null,
    "district": null,
    "village": null,
    "street": "Pasta iela",
    "house": "4",
    "zipcode": "3401",
    "address": "Pasta iela 4, Liepāja, LV-3401",
    "lat": "56.5108663441",
    "long": "21.0124591154"
  },
  {
    "id": "625",
    "postcode": "4202",
    "label": "Valmieras 2. pasta nodaļa",
    "working_monday": "7:30-17:00",
    "working_tuesday": "7:30-17:00",
    "working_wednesday": "7:30-17:00",
    "working_thursday": "7:30-17:00",
    "working_friday": "7:30-17:00",
    "working_saturday": "-",
    "working_sunday": "-",
    "phone": "67008001; 27008001",
    "inout": "0",
    "region": "Valmieras raj.",
    "city": "Valmiera",
    "area": "Valmieras nov.",
    "district": null,
    "village": null,
    "street": "Tērbatas iela",
    "house": "43",
    "zipcode": "4201",
    "address": "Tērbatas iela 43, Valmiera, Valmieras nov., LV-4201",
    "lat": "57.5481214639",
    "long": "25.4332940568"
  }
]